Property Name,Property Status,Type,Address,City,State,Zip,Tenant(s),Lease Term,Remaining Term,SqFt,Price/SqFt,Units,Price/Unit,NOI,Cap Rate,Asking Price,Days on Market,Opportunity Zone,Longitude,Latitude
GEMS World Academy  Chicago,On-Market,Special Purpose,350 East South Water Street,Chicago,IL,60601,N/A,,,80439,,,,,,,39,No,-87.6187664,41.8866712
CHICAGO FIVE PORTFOLIO,On-Market,Multifamily,3720 W McLean Ave,Chicago,IL,60647,N/A,,,32250,$142.00 ,33,"$138,485.00 ","$353,920.00 ",8.58%,"$4,570,000.00 ",69,No,NA,NA
"OFFICE BUILDING - 1112 S WABASH, CHICAGO, IL 60605",On-Market,Office,1112 S Wabash Ave,Chicago,IL,60605,Multi,,,75000,$178.67 ,,,"$1,196,206.00 ",8.93%,"$13,400,000.00 ",1510,No,-87.6263122,41.8687217
1534 S. Western Avenue,On-Market,"Industrial, Self Storage",1534 S Western Ave,Chicago,IL,60608,Vacant,,,65200,$42.18 ,,,,,"$2,750,000.00 ",1590,Yes,-87.6859318,41.86010919
Stabilized Western Medical Office Portfolio,On-Market,"Office, Retail",11240 S Western Ave,Chicago,IL,60643,Multi,,,,,,,,7.80%,"$3,945,000.00 ",124,No,NA,NA
"Point at Clark  Lakeview  Chicago, IL",On-Market,Retail,3131 N Clark St,Chicago,IL,60657,Multi,,,90455,,3,,,,,383,No,-87.649558,41.9391403
Instant Alliance  Single-Tenant Office Investment,On-Market,Office,"55 W Wacker Drive, Suite 600-D",Chicago,IL,60601,Single,,0.4,,,,,"$120,755.00 ",8.63%,"$1,400,000.00 ",1043,No,-87.6300102,41.8864753
2100 W Fulton St,On-Market,Industrial,2100 W Fulton St,Chicago,IL,60612,Single,,,17121,,,,,,,892,No,-87.6794584,41.8870556
Vacant Owner-UserValue-Add Loop Office Condo  Suite 350,On-Market,Office,"55 W Wacker Drive, Suite 350",Chicago,IL,60601,Vacant,,,,,,,,,"$1,065,000.00 ",1043,No,-87.6300142,41.8865033
Walgreens,On-Market,Retail,1614 W 47th St,Chicago,IL,60609,Single,,13.5,13891,,,,"$305,602.00 ",6.65%,"$4,595,519.00 ",46,No,-87.6658987,41.8088905
South Side Trust and Savings Bank,On-Market,Retail,4659 S Cottage Grove Ave,Chicago,IL,60653,Vacant,,,35850,,1,,,,"$1,900,000.00 ",167,Yes,-87.6061021,41.8097178
Chicago Loop High-Rise Office Building,On-Market,Office,105 W Madison St,Chicago,IL,60602,Multi,,,134220,,,,"$1,574,568.00 ",6.30%,,1833,No,-87.6312275,41.8818289
KFC in Prime Location Near Downtown Chicago,On-Market,Retail,7445 S Stony Is Ave,Chicago,IL,60649,Single,20,12.5,3000,$666.67 ,,,"$94,160.00 ",4.71%,"$2,000,000.00 ",827,Yes,-87.58578968,41.75931166
"219 West Chicago Ave, Mixed Use  Resi Conversion  OwnUser",On-Market,"Mixed Use, Multifamily, Office",219 W Chicago Ave,Chicago,IL,60654,N/A,,,19615,,7,,"$298,705.00 ",,,26,No,-87.6350968,41.8963515
Southgate Market,On-Market,Retail,1101 S Canal St,Chicago,IL,60607,Multi,,8.4,303810,,,,,,,28,No,-87.63931994,41.86928524
Prime Fulton Market Portfolio,On-Market,"Industrial, Land, Office, Retail",1044 W Kinzie St,Chicago,IL,60642,Multi,,,52932,,,,,,"$9,500,000.00 ",66,No,NA,NA
N La Crosse and W Montrose - 15 Units,On-Market,Multifamily,4832 W Montrose Ave,Chicago,IL,60641,N/A,,,,,15,"$143,333.33 ","$100,282.00 ",5.00%,"$2,150,000.00 ",560,No,-87.74875492,41.96100759
Printers Square Garage  75 W Harrison St,On-Market,Special Purpose,75 W Harrison St,Chicago,IL,60605,Multi,,,93750,$35.73 ,220,"$15,227.27 ",,,"$3,350,000.00 ",288,No,-87.63002648,41.87450472
North Bosworth Portfolio - Wicker Park,On-Market,"Multifamily, Mixed Use",1636 N Bosworth Ave,Chicago,IL,60642,N/A,,,33900,,,,,,"$8,495,000.00 ",174,No,NA,NA
820 E Marquette - 12-Unit MF Investment Opportunity,On-Market,Multifamily,820 E Marquette Rd,Chicago,IL,60637,N/A,,,,,12,"$107,916.67 ","$112,721.00 ",8.70%,"$1,295,000.00 ",112,Yes,-87.60475754,41.77496324
High Cash Flow Mixed Use Building,On-Market,Mixed Use,8244-8248 South Ashland Avenue,Chicago,IL,60620,Multi,,,17891,,15,,"$143,366.00 ",11.47%,"$1,250,000.00 ",39,No,-87.66331045,41.74348534
1921 S Jefferson St,On-Market,Multifamily,1921 S Jefferson St,Chicago,IL,60616,N/A,,,,,4,"$412,500.00 ","$124,236.00 ",7.53%,"$1,650,000.00 ",235,No,-87.641486,41.8561754
Walgreens  Strong Sales  Top 1 National Ranking  Chicago,On-Market,Retail,1633 W 95th St,Chicago,IL,60643,Single,30.1,3.4,13833,$304.13 ,,,"$305,000.00 ",7.25%,"$4,207,000.00 ",131,No,-87.6635336,41.7205972
"Planet Fitness - Chicago, IL",On-Market,Retail,7455 S Cicero Ave,Chicago,IL,60629,Single,,7,20862,,,,,7.00%,"$3,054,800.00 ",61,No,-87.74156014,41.75789042
5233-5239 N Damen Ave,On-Market,"Mixed Use, Multifamily, Retail",5233-5239 N Damen Ave,Chicago,IL,60625,Multi,,,6148,,6,"$191,667.00 ",,,"$1,095,000.00 ",140,No,-87.6794566,41.97697247
The Persepolitan,On-Market,"Mixed Use, Multifamily, Office",1714 S Ashland Ave,Chicago,IL,60608,N/A,,,5950,,5,,"$132,000.00 ",10.15%,"$1,300,000.00 ",21,No,-87.66607624,41.85815483
923 CARPENTER,On-Market,Multifamily,923 S Carpenter St,Chicago,IL,60607,N/A,,,4600,,5,"$325,000.00 ","$116,562.00 ",7.17%,"$1,625,000.00 ",48,No,-87.6530267,41.8700317
"US Bank  Cicero Chicago, IL",On-Market,Retail,4765 W Cermak Rd,Chicago,IL,60804,Single,22,2.4,3055,$932.90 ,1,,"$250,000.00 ",8.77%,"$2,850,000.00 ",619,No,-87.7419996,41.8508003
IMPERIAL MOTEL,On-Market,Hospitality,45 W 103rd St,Chicago,IL,60628,N/A,,,,,,"$46,195.00 ",,13.31%,"$1,900,000.00 ",132,No,-87.6252516,41.7068943
2229 South Michigan Ave,On-Market,"Retail, Office, Mixed Use",2229 S Michigan Ave,Chicago,IL,60616,Multi,,,29834,,,,,,,1705,Yes,-87.6233053,41.8520618
"Stabilized, Long-Term Leased Asset  Chicago, IL",On-Market,Special Purpose,2948 W Grand Ave,Chicago,IL,60622,Multi,13,5.2,35233,,2,,"$384,548.00 ",,,440,No,-87.7011539,41.8964304
"1351 W Touhy Ave, Chicago, IL 60626",On-Market,Multifamily,1351 W Touhy Ave,Chicago,IL,60626,N/A,,,,,43,"$169,767.44 ","$467,185.00 ",6.40%,"$7,300,000.00 ",4,No,-87.6655259,42.012608
The Yards Plaza,On-Market,Retail,4500-4700 S. Damen Avenue,Chicago,IL,60609,N/A,,,260481,,,,,,,387,No,-87.6761029,41.8110918
Successful Italian Restaurant in College Town for Sale,On-Market,Retail,N/A,Chicago,IL,N/A,Multi,19,19,3500,,,,,,"$1,600,000.00 ",94,No,NA,NA
Lincoln Park - 4 Unit,On-Market,"Mixed Use, Multifamily",2636 N Lincoln Ave,Chicago,IL,60614,Multi,,,9910,,4,"$568,750.00 ","$144,892.00 ",6.37%,"$2,275,000.00 ",166,No,-87.65493952,41.92988738
3219 N. Clark St  Retail Property,On-Market,"Office, Retail",3219 N Clark St,Chicago,IL,60657,Single,,,6992,$321.80 ,1,,"$190,177.00 ",8.45%,"$2,250,000.00 ",221,No,-87.6508108,41.9405805
"101667. 79 SFR Home Chicago, IL",On-Market,Multifamily,101667. 79 SFR Home,Chicago,IL,60652,N/A,,,112194,$134.00 ,79,"$189,873.00 ","$1,287,821.00 ",8.59%,"$15,000,000.00 ",5,No,-87.7070868,41.7495423
6542 and 6550 N Clark St,On-Market,"Office, Industrial",6542 and 6550 N Clark St,Chicago,IL,60626,N/A,,,,,172,,,,,200,No,-87.6720984,42.00149
222 S. Morgan St,On-Market,Office,222 S. Morgan St,Chicago,IL,60607,Multi,,,36729,,,,,,"$5,000,000.00 ",3106,No,-87.6522193,41.8784046
6553-6555 S. King Drive,On-Market,Multifamily,6553 S King Dr,Chicago,IL,60619,N/A,,,,,24,"$93,750.00 ","$119,578.00 ",5.31%,"$2,250,000.00 ",169,Yes,-87.6154839,41.77501034
Four Level LoungeRestaurant Business with Rooftop for Sale.,On-Market,"Retail, Hospitality",324 W Chicago Ave,Chicago,IL,60654,N/A,,,9600,,1,,,,,217,No,-87.6367746,41.8967074
4536 W Lawrence Ave,On-Market,Industrial,4536 W Lawrence Ave,Chicago,IL,60630,Multi,,,12000,,3,,,,"$1,100,000.00 ",617,No,-87.7428457,41.9683052
3152 W. 111th St. - Hard Corner of 111th  Kedzie,On-Market,Retail,3152 W 111th St,Chicago,IL,60655,Single,,0,2500,,,,"$44,494.00 ",,"$1,200,000.00 ",15,No,-87.70019817,41.6918079
2010-2012 S Wabash Ave,On-Market,"Mixed Use, Multifamily, Retail",2010 S Wabash Ave,Chicago,IL,60616,Multi,,,28674,$108.11 ,8,"$387,500.00 ",,8.80%,"$3,100,000.00 ",1833,No,-87.6260782,41.8549897
The Learning Experience  8.00 Cap Rate,On-Market,Retail,4110 W Peterson Ave,Chicago,IL,60646,Single,8,,9212,$533.00 ,,,"$368,400.00 ",8.00%,"$4,605,000.00 ",137,No,-87.7315814,41.991363
1300 S. Kostner Ave,On-Market,Industrial,1300 S Kostner Ave,Chicago,IL,60623,N/A,,,70000,,,,,,,395,Yes,-87.7361914,41.8637576
6235-6243 N Western Avenue,On-Market,"Retail, Multifamily, Mixed Use",6235 N Western Ave,Chicago,IL,60659,Multi,,,15000,$146.00 ,17,"$128,824.00 ","$171,421.00 ",7.83%,"$2,190,000.00 ",36,No,-87.6896117,41.9951239
21 S Racine Ave,On-Market,Retail,21 S Racine Ave,Chicago,IL,60607,N/A,,,18626,,,,,,,17,No,-87.6564192,41.8809029
Mixed-Use Building For Sale in West Town,On-Market,"Mixed Use, Retail",1911 W Chicago Ave,Chicago,IL,60622,Multi,,,4945,,3,,,,"$1,299,000.00 ",196,No,-87.67506708,41.89596303
670 W Hubbard,On-Market,"Office, Retail",670 W Hubbard St,Chicago,IL,60654,Multi,,,9500,,,,,,,1610,No,-87.6455866,41.8903608
Vacant Owner-UserValue-Add Loop Office Condo  Suite 1500,On-Market,Office,"55 W Wacker Drive, Suite 1500",Chicago,IL,60601,Vacant,,,,,,,,,"$1,410,000.00 ",1043,No,-87.6300102,41.8864753
Retail  Warehouse  Redevelopment Opportunity,On-Market,Retail,4177-4179 & 4181-4193 S. Archer Avenue,Chicago,IL,60632,N/A,,,30250,,,,,,,237,No,-87.69843,41.8172654
"3014 W Irving Park Road, Chicago, IL",On-Market,"Retail, Multifamily, Mixed Use, Special Purpose",3014 W Irving Park Rd,Chicago,IL,60618,Multi,,,7267,$151.37 ,3,,,,"$1,100,000.00 ",1483,No,-87.70373372,41.95391593
West Loop  Fulton Market Office Building Fronting Park,On-Market,Office,112 S Sangamon St,Chicago,IL,60607,Multi,,,31250,,,,,,"$6,750,000.00 ",54,No,-87.65071475,41.87992768
1525-1529 N Milwaukee Avenue,On-Market,Retail,1525 N Milwaukee Ave,Chicago,IL,60622,Multi,,,4461,$599.64 ,2,,"$206,830.00 ",7.73%,"$2,675,000.00 ",1,No,-87.6755127,41.9093969
The Albany Apartments,On-Market,Multifamily,6322 N Albany Ave,Chicago,IL,60659,N/A,,,19000,$172.00 ,24,"$136,250.00 ","$206,720.00 ",6.44%,"$3,270,000.00 ",40,No,-87.70688994,41.99642842
5301-5305 N. Harlem Ave.,On-Market,Retail,5301 N Harlem Ave,Chicago,IL,60656,Single,9.9,4,3234,$371.06 ,,,"$72,526.00 ",6.04%,"$1,200,000.00 ",296,No,-87.80703153,41.97725291
220 North Laflin Street,On-Market,Industrial,220 North Laflin Street,Chicago,IL,60607,Single,,,7906,,,,,,,28,No,-87.6646632,41.886292
2922-44 W 26th St,On-Market,Industrial,2922 W 26th St,Chicago,IL,60623,N/A,,,50000,,,,,,"$3,200,000.00 ",199,No,-87.6987184,41.8447745
Lincoln Park Single-Tenant Restaurant,On-Market,Retail,2577 N Clark St,Chicago,IL,60614,Single,7,5.2,9200,$340.98 ,1,,"$232,694.00 ",7.42%,"$3,137,000.00 ",246,No,-87.6426396,41.9298812
Chatham Plaza 100 Occupied Multi-Tenant Strip,On-Market,Retail,8301 S Holland Rd,Chicago,IL,60620,Multi,,,9610,,4,,"$274,416.00 ",7.75%,"$3,541,000.00 ",60,No,-87.6316535,41.7433075
3800 N Milwaukee Avenue,On-Market,"Industrial, Retail",3800 N Milwaukee Ave,Chicago,IL,60641,Multi,,,128722,,9,,"$1,433,999.00 ",8.21%,"$17,470,000.00 ",14,No,-87.7416291,41.94994081
Chicago Ridge Starbucks,On-Market,Retail,10259 S Harlem Ave,Chicago Ridge,IL,60415,N/A,,,2400,,,,,,"$2,940,000.00 ",49,No,-87.7974547,41.7048513
bartaco,On-Market,Retail,1635 N Damen Ave,Chicago,IL,60647,Single,10,8.1,5824,,,,"$358,750.00 ",,,234,No,-87.6772531,41.9115342
New Wave Laundromat,On-Market,"Business for Sale, Retail",6043 W Addison St,Chicago,IL,60634,Multi,5,2,,,2,,"$205,883.00 ",13.50%,"$1,525,000.00 ",200,No,-87.77836976,41.94574453
Midwest Retail Portfolio,On-Market,Retail,4504 - 4734 Parnell Ave,Fort Wayne,IN,46825,N/A,,,405378,,,,,,,249,Yes,NA,NA
2051 W Division Street,On-Market,"Hospitality, Mixed Use, Retail",2051 W Division St,Chicago,IL,60622,N/A,,,,,,,,,"$1,800,000.00 ",42,No,-87.67926124,41.90298817
"5535 N Wolcott Ave.  Chicago, IL",On-Market,Industrial,5535 N Wolcott Ave,Chicago,IL,60640,N/A,,,36480,$82.10 ,,,,,"$2,995,000.00 ",287,No,-87.6760915,41.982587
2023 W. Fullerton Ave,On-Market,"Retail, Office, Industrial",2023 W. Fullerton Ave,Chicago,IL,60647,N/A,,,9600,,,,,,"$3,000,000.00 ",77,No,-87.6787329,41.9247374
1550 N Green Bay Rd.,On-Market,Office,1550 N Green Bay Rd,North Chicago,IL,60064,Single,,,5400,$212.96 ,1,,,,"$1,150,000.00 ",710,No,-87.8709713,42.3309795
Chicago Gas Station 6.7MLN,On-Market,Retail,6.7 Gas Station,Chicago,IL,60600,N/A,,,,,1,,,,"$6,700,000.00 ",127,No,-87.61857363,41.87054648
South Shore Value-Add  50 units,On-Market,Multifamily,6700 S Merrill Ave,Chicago,IL,60649,N/A,,,40011,,50,"$69,000.00 ",,0.00%,"$3,450,000.00 ",41,Yes,-87.57283353,41.77344194
14 N Sangamon St,On-Market,Office,14 N Sangamon St,Chicago,IL,60607,N/A,,,1154,,,,,,,208,No,-87.6512091,41.8822666
Dollar General,On-Market,Retail,6647 S Western Ave,Chicago,IL,60636,Single,20,5.7,8894,,,,"$131,775.00 ",7.85%,"$1,678,662.00 ",12,Yes,-87.6830245,41.7724393
"Chicago Chop House  60 West Ontario Street, Chicago, IL",On-Market,Retail,60 W Ontario St,Chicago,IL,60654,Single,15,14.4,9565,,1,,,,,166,No,-87.6303902,41.8933385
"1438-1444 W Lake , 220 N Laflin",On-Market,Industrial,220 S Laflin St,Chicago,IL,60607,N/A,,,,,,,,,,28,No,NA,NA
Premier West Town Corner Building  1859 W Chicago Ave,On-Market,"Mixed Use, Multifamily, Retail",1859 W Chicago Ave,Chicago,IL,60622,Multi,,,9267,$302.04 ,7,,"$206,739.00 ",7.40%,"$2,799,000.00 ",336,No,-87.6745786,41.89597512
"101615 . Dynamic Tri-plex BFR Chicago, IL",On-Market,Multifamily,"Bronzeville, Chicago, IL, USA",Chicago,IL,60653,N/A,,,109350,,81,,"$1,922,778.00 ",6.47%,"$29,700,000.00 ",343,No,-87.603826,41.820267
Motor Row  2419-2421 S. Michigan Ave,On-Market,Industrial,2419 S Michigan Ave,Chicago,IL,60616,N/A,,,22929,,2,,,,"$2,100,000.00 ",1315,Yes,-87.6231883,41.8486833
1820 N. Major,On-Market,Industrial,1820 N Major Ave,Chicago,IL,60639,Vacant,,,30000,$43.33 ,,,,,"$1,300,000.00 ",336,No,-87.76805459,41.91314491
2004 W Roscoe,On-Market,Mixed Use,2004 W Roscoe St,Chicago,IL,60618,N/A,,,5047,$237.77 ,3,,"$87,800.00 ",7.32%,"$1,200,000.00 ",41,No,-87.6787998,41.943417
Raising Cane's,On-Market,Retail,820 W Randolph St,Chicago,IL,60607,Single,15,15.2,8780,,1,,,,,0,No,-87.64859473,41.88449458
2950 W 26th St,On-Market,Retail,2950 W 26th St,Chicago,IL,60623,Multi,,,8000,,,,,,"$2,100,000.00 ",283,No,-87.6997458,41.8449245
1219 West Madison Ave,On-Market,"Retail, Office",1219 W Madison Ave,Chicago,IL,60607,N/A,,,12000,,,,,,"$3,750,000.00 ",517,No,-87.6580355,41.8813422
1411 W Taylor St - Current 7.43 Cap,On-Market,"Multifamily, Mixed Use",1411 W Taylor St,Chicago,IL,60607,N/A,,,5400,$425.00 ,5,,"$170,407.00 ",7.43%,"$2,195,000.00 ",148,No,-87.6621396,41.8691234
"Absolute Net NNN Walgreens - Belmont Ave Chicago, IL",On-Market,Retail,3424 W Belmont Ave,Chicago,IL,60618,Single,25,9.6,14490,$502.76 ,1,,"$546,375.00 ",7.50%,"$7,285,000.00 ",334,No,-87.71332697,41.93966758
Chicago Hotel Collection,On-Market,Hospitality,3473 N Clark St,Chicago,IL,60657,N/A,,,15000,,,,"$853,613.00 ",,"$25,000,000.00 ",28,No,-87.654821,41.945474
CubeSmart Self Storage Managed,On-Market,Self Storage,3637 N Central Ave,Chicago,IL,60634,N/A,,,,,,,,,,1,No,-87.7666506,41.9468764
"25,000 SF Developement Site in Rogers Park",On-Market,"Mixed Use, Multifamily, Retail",1520 W Jarvis Ave,Chicago,IL,60626,N/A,,,25300,$110.67 ,,,,,"$2,800,000.00 ",18,No,-87.6689451,42.0161716
La Familia Wellness Center,On-Market,Office,5241 S Cicero Ave,Chicago,IL,60632,Multi,,,6846,,3,,,7.83%,"$775,000.00 ",46,No,-87.7427626,41.79746322
4834-46 S Indiana,On-Market,Multifamily,4834 S Indiana Ave,Chicago,IL,60615,N/A,,,,,23,,"$300,791.00 ",6.40%,"$4,700,000.00 ",62,Yes,-87.62113643,41.80606699
3659 W. Harrison St.,On-Market,Industrial,3659 W Harrison St,Chicago,IL,60624,N/A,,,27229,,,,$0.00 ,,"$1,700,000.00 ",201,Yes,-87.717646,41.8730882
"Lincoln Park2249 N. Lincoln Ave., Chicago, IL, Tobacco Road",On-Market,Retail,2249 N Lincoln Ave,Chicago,IL,60614,N/A,,,4312,,,,,,,193,No,-87.64523165,41.92294878
2432-2434 W Fargo  7434-7438 N Artesian Ave,On-Market,Multifamily,2432-2434 W Fargo & 7434-7438 N Artesian Ave,Chicago,IL,60645,N/A,,,,,12,"$162,500.00 ","$130,926.00 ",6.70%,"$1,950,000.00 ",4,No,-87.6916858,42.0169576
Walgreens,On-Market,Retail,5414 S Archer Ave,Chicago,IL,60638,Single,25,12.3,14160,$541.33 ,,,"$421,587.00 ",5.50%,"$7,665,223.00 ",122,No,-87.74371166,41.79863045
BMO,On-Market,Retail,1614 W 95th St,Chicago,IL,60643,Single,,2.7,3500,,,,,,"$2,745,188.00 ",174,No,-87.663753,41.721617
1521 N Milwaukee Avenue,On-Market,Retail,1521 N Milwaukee Ave,Chicago,IL,60622,Single,23,2.9,10600,$398.58 ,1,,"$324,369.00 ",7.68%,"$4,225,000.00 ",1,No,-87.67558934,41.90915901
University of Illinois Chicago-Anchored Investment,On-Market,Retail,5225 W Madison St,Chicago,IL,60644,N/A,,,20034,$164.72 ,,,"$305,387.00 ",9.25%,"$3,300,000.00 ",594,No,-87.7562119,41.8800936
2843 N. Halsted Street,On-Market,Retail,2843 N Halsted St,Chicago,IL,60657,N/A,,,6400,,,,,,,921,No,-87.6486514,41.9339905
Manhattan Building Condos,On-Market,Retail,423-439 S Dearborn St,Chicago,IL,60605,Multi,,,7098,,6,,"$174,000.00 ",8.00%,"$2,175,000.00 ",512,No,-87.628934,41.876064
886-888 N. Milwaukee Avenue,On-Market,"Retail, Multifamily, Office, Industrial, Self Storage",886-888 N Milwaukee Ave,Chicago,IL,60642,N/A,,,6750,,,,,,"$1,250,000.00 ",180,No,-87.6583921,41.8978412
"Long-term Leased 10,739 SF Retail Property in Logan Square",On-Market,Retail,2252 N Milwaukee Ave,Chicago,IL,60647,Single,,,10739,,,,,,,179,No,-87.69588547,41.92200363
1640 S State Street,On-Market,"Retail, Industrial",1640 S State St,Chicago,IL,60616,Single,,,13646,,,,,,"$2,650,000.00 ",532,No,-87.6277002,41.8592091
4660 N Ravenswood Ave,On-Market,Office,4660 N Ravenswood Ave,Chicago,IL,60640,Multi,,,44900,,,,,,"$5,500,000.00 ",314,No,-87.6751858,41.9667662
7100 S. Jeffery Blvd,On-Market,"Mixed Use, Multifamily",7100 S Jeffery Blvd,Chicago,IL,60649,Multi,,,52193,$86.22 ,55,"$81,818.18 ","$357,330.00 ",7.94%,"$4,500,000.00 ",1755,No,-87.5494745,41.7246539
SamsBeauty Warehouse,On-Market,Retail,7200 S Cicero Ave,Chicago,IL,60629,Single,,14.5,81798,$70.30 ,,,"$480,154.00 ",8.35%,"$5,750,000.00 ",334,No,-87.7458841,41.7625536
2415 west 24th place,On-Market,Industrial,2415 W 24th St,Chicago,IL,60608,N/A,,,24000,,,,,,,211,No,-87.6863985,41.848287
2323 N. Milwaukee Ave,On-Market,Retail,2323 N Milwaukee Ave,Chicago,IL,60647,N/A,,,12500,,,,,,"$3,750,000.00 ",75,No,-87.6980775,41.9236775
Pilsen Redevelopment Opportunity,On-Market,"Mixed Use, Multifamily, Special Purpose",1650 W 17th St,Chicago,IL,60608,N/A,,,82250,,,,,,"$3,950,000.00 ",146,No,-87.66814895,41.85867206
1254 N. Milwaukee,On-Market,Retail,1254 N Milwaukee Ave,Chicago,IL,60622,N/A,,,2400,$412.50 ,1,,,,"$990,000.00 ",290,No,-87.6686376,41.9044228
1612 W Fulton Street,On-Market,Industrial,1612 W Fulton St,Chicago,IL,60612,Vacant,,,14500,,,,,,,789,Yes,-87.6675527,41.8872399
444 Fullerton  Lincoln Park,On-Market,Retail,444 W Fullerton Pkwy,Chicago,IL,60614,N/A,,,11300,,,,,,"$2,750,000.00 ",112,No,-87.640828,41.92559805
"Walgreens Leasehold Opportunity - Chicago, IL",On-Market,Retail,4001 W Irving Park Rd,Chicago,IL,60641,Single,25,6.6,12495,$186.02 ,,,"$214,999.00 ",9.25%,"$2,324,314.00 ",334,No,-87.7279201,41.95354205
Gorgeous multi unit3575-3577 w. Belden Double lot-2 PINS,On-Market,Multifamily,3575 W Belden Ave,Chicago,IL,60647,N/A,,,,,3,"$533,000.00 ",,,"$1,599,000.00 ",126,No,-87.71648959,41.92278481
Wicker Park - Net Lease  Apartments,On-Market,Mixed Use,1474 N Milwaukee Ave,Chicago,IL,60622,Multi,,,,,4,,"$263,449.00 ",7.40%,"$3,558,000.00 ",663,No,-87.6750884,41.9084918
1514 N Milwaukee Avenue,On-Market,Retail,1514 N Milwaukee Ave,Chicago,IL,60622,Single,10,,3009,$714.52 ,1,,"$164,352.00 ",7.64%,"$2,150,000.00 ",1,No,-87.6753161,41.90898359
"3307 W Irving Park Rd, Chicago, IL",On-Market,Mixed Use,3307 W Irving Park Rd,Chicago,IL,60618,N/A,,,2600,$259.23 ,2,,,,"$674,000.00 ",106,No,-87.7108089,41.9536517
3322 W Lawrence Ave,On-Market,"Mixed Use, Office, Retail",3322 W Lawrence Ave,Chicago,IL,60625,N/A,,,19500,,,,,,,154,No,-87.71213522,41.9684018
833 W Haines St,On-Market,Industrial,833 W Haines St,Chicago,IL,60642,N/A,,,21000,,,,,,"$3,600,000.00 ",26,No,-87.6492818,41.9008704
100 Leased Office Property For Sale,On-Market,Office,7000 W North Ave,Chicago,IL,60707,Multi,,,14005,$96.39 ,19,,,,"$1,350,000.00 ",272,No,-87.80035731,41.90901847
10401 S Ewing Avenue,On-Market,"Mixed Use, Multifamily, Retail",10401 S Ewing Ave,Chicago,IL,60617,N/A,,,12000,,9,"$83,333.00 ","$53,525.00 ",7.14%,"$750,000.00 ",148,No,-87.5350576,41.7062367
Chipotle - Absolute NNN,On-Market,Retail,1399 W Lincoln Hwy,Chicago Heights,IL,60411,Single,,14.8,2350,,,,"$143,350.00 ",5.25%,"$2,730,476.00 ",48,Yes,-87.6738409,41.5061335
Lakeview  Broadway Boba Tea,On-Market,Business for Sale,3304 N Broadway,Chicago,IL,60657,N/A,5,3,722,,,,,,"$179,000.00 ",50,No,-87.64444518,41.94202263
Wilson Magnolia Plaza - Chicago Uptown,On-Market,Retail,1244-1254 W Wilson Ave,Chicago,IL,60640,Multi,,,,,5,,$120.86 ,,"$1,560,000.00 ",664,No,-87.6613738,41.965539
2900 W. Chicago,On-Market,Industrial,2900 W Chicago Ave,Chicago,IL,60622,Single,,,9200,$137.50 ,,,,,"$1,265,000.00 ",424,No,-87.6994503,41.8957808
401 N. Leavitt Street,On-Market,"Office, Industrial",401 N Leavitt St,Chicago,IL,60612,Vacant,,,39300,$83.97 ,,,,,"$3,300,000.00 ",2084,No,-87.681339,41.888858
440 W Randolph St,On-Market,Retail,440 W Randolph St,Chicago,IL,60606,Multi,,,27639,$143.00 ,341,,,,"$3,650,000.00 ",53,No,-87.6393482,41.8846137
STARBUCKS W DR-THRU  INFILL CHICAGO  15 YEAR NNN,On-Market,Retail,4751 S Central Ave,Chicago,IL,60638,Single,,14.3,2231,,,,"$220,500.00 ",6.00%,"$3,675,000.00 ",21,No,-87.7623082,41.8058003
1659 W Division St,On-Market,"Retail, Mixed Use",1659 W Division St,Chicago,IL,60622,N/A,,,7500,$42.44 ,,,,,,364,No,-87.6697678,41.9030423
4948-4950 N Christiana Avenue,On-Market,Multifamily,4948 N Christiana Ave,Chicago,IL,60625,N/A,,,7100,$218.31 ,8,"$193,750.00 ",,6.01%,"$1,550,000.00 ",202,No,-87.7125958,41.9717153
3900 S Western Ave,On-Market,Retail,3900 S Western Ave,Chicago,IL,60609,N/A,,,4000,,1,,,,,1586,No,-87.685126,41.8227735
12054 S. Doty Ave.,On-Market,Industrial,12054 S Doty Ave,Chicago,IL,60628,Vacant,,,20020,$137.36 ,,,,,"$2,750,000.00 ",468,No,-87.60169845,41.67517213
548 N. Sacramento Blvd,On-Market,"Office, Industrial",548 N. Sacramento Blvd,Chicago,IL,60612,N/A,,,51312,,,,,,"$4,999,000.00 ",111,Yes,-87.7027125,41.8917514
3056 West Walton Street,On-Market,"Industrial, Land, Mixed Use, Office, Self Storage",3056 W Walton St,Chicago,IL,60622,N/A,,,11990,,,,,,"$2,250,000.00 ",78,No,-87.70385349,41.89861343
1331 S Michigan Avenue,On-Market,"Retail, Office, Mixed Use",1331 S Michigan Avenue,Chicago,IL,60605,Vacant,,,,,,,,,"$1,499,000.00 ",1331,No,-87.6236706,41.8648464
6120-22 N Hamilton Ave.  6128-34 N Hamilton Ave. properties,On-Market,Multifamily,6120 N Hamilton Ave,Chicago,IL,60659,N/A,,,13374,$186.74 ,15,"$166,500.00 ","$174,800.00 ",7.00%,"$2,497,500.00 ",216,No,-87.6837675,41.9925921
East Village Two Units for Sale With Med-Spa,On-Market,"Mixed Use, Multifamily",848 N Ashland Ave,Chicago,IL,60622,Multi,,0.7,2100,$333.33 ,2,,"$70,064.00 ",10.01%,"$699,999.00 ",523,No,-87.66764264,41.89755083
Bronzeville 45 Portfolio,On-Market,Multifamily,4201 S Michigan Ave,Chicago,IL,60653,N/A,,,61898,$163.58 ,45,"$225,000.00 ","$712,879.00 ",7.04%,"$10,125,000.00 ",76,No,-87.6227986,41.8181597
New Construction in Humbolt Park,On-Market,Multifamily,1052 N Central Park Ave,Chicago,IL,60651,N/A,,,3900,,3,,,,"$949,000.00 ",14,Yes,-87.7168634,41.9006269
932-946 W 59th St,On-Market,Industrial,932 W 59th St,Chicago,IL,60621,N/A,,,2000,$100.00 ,,,,,"$200,000.00 ",230,Yes,-87.6488539,41.7871691
3596 N. Milwaukee Ave,On-Market,"Retail, Office, Industrial",3596 N. Milwaukee Ave,Chicago,IL,60641,N/A,,,4555,,,,,,"$869,000.00 ",102,No,-87.7357129,41.9460798
Prime Retail Space in High-Traffic East Lakeview,On-Market,Retail,3418 N Sheffield Ave,Chicago,IL,60657,Single,5,5,1150,,,,,,"$359,900.00 ",8,No,-87.65426228,41.94412679
1106 West Newport,On-Market,Multifamily,1106 W Newport Ave,Chicago,IL,60657,N/A,,,,,24,,,,"$12,150,000.00 ",19,No,-87.65701657,41.94443463
225 W. Superior,On-Market,Office,225 W Superior St,Chicago,IL,60654,Vacant,,,56000,$141.07 ,,,,,"$7,900,000.00 ",281,No,-87.635156,41.89557685
Elston Industrial Portfolio,On-Market,Industrial,3021 N Elston Ave,Chicago,IL,60618,Vacant,,,33000,,,,,,,393,No,-87.693347,41.936343
5841 W Dickens Ave,On-Market,Industrial,5841 W Dickens Ave,Chicago,IL,60639,N/A,,,93911,,,,,,,166,No,-87.7721715,41.9174878
Western-Howard Plaza,On-Market,Retail,2341 W Howard St,Chicago,IL,60645,Multi,,5,11974,$208.79 ,3,,"$183,905.00 ",7.36%,"$2,500,000.00 ",104,No,-87.6894644,42.0193564
44 W Lincoln Hwy,On-Market,"Mixed Use, Office, Retail",44 W Lincoln Hwy,Chicago Heights,IL,60411,Single,,,6600,$138.64 ,,,,9.50%,"$915,000.00 ",227,No,-87.6434329,41.5058325
1748 W North Ave,On-Market,"Mixed Use, Multifamily",1748 W North Ave,Chicago,IL,60622,Multi,,,8600,$430.23 ,7,"$528,571.43 ","$241,353.00 ",6.52%,"$3,700,000.00 ",337,No,-87.67203279,41.9105992
1320 N. Cicero Ave,On-Market,Industrial,1320 N Cicero Ave,Chicago,IL,60651,N/A,,,5500,,,,,,"$499,000.00 ",796,No,-87.7463786,41.9048603
Auto Dealership,On-Market,Special Purpose,2435 N Cicero Ave Chicago IL 60639,Chicago,IL,60639,Single,,,12000,,1,,,,"$1,499,000.00 ",206,No,-87.745961,41.9255777
WEST LOOP REDEVELOPMENT OPPORTUNITY,On-Market,"Office, Retail",565 W Randolph St,Chicago,IL,60661,Multi,,,59981,$273.00 ,,"$290,984.00 ","$439,360.00 ",,,91,No,-87.6425647,41.8843207
"Chicago - 2139 W Irving Park Road  For Sale - 2,430",On-Market,"Mixed Use, Office, Retail",2139 W Irving Park Rd,Chicago,IL,60618,Vacant,,,2430,$946.50 ,,,,,"$2,300,000.00 ",257,No,-87.6826684,41.9538677
2036 W Roscoe Street,On-Market,Retail,2036 W Roscoe St,Chicago,IL,60618,Vacant,,,2000,,,,,,,320,No,-87.67992194,41.94321577
Renovated 6 cap Multifamily,On-Market,Multifamily,1615 W Highland Ave,Chicago,IL,60660,N/A,,,12751,,13,"$251,538.46 ",,,"$3,270,000.00 ",361,No,-87.67095455,41.99681261
4027 Broadway,On-Market,Multifamily,4027 N Broadway,Chicago,IL,60613,N/A,,,,,21,"$404,761.90 ","$545,410.00 ",6.42%,"$8,500,000.00 ",36,No,-87.6506739,41.955387
"560 W Lake St - 1st, 5th, 6th, 7th Floors",On-Market,Office,560 W Lake St,Chicago,IL,60661,N/A,,,57863,,,,,,,147,No,-87.6422865,41.8858496
4711 N Lamon Ave,On-Market,"Office, Industrial",4711 N Lamon Ave,Chicago,IL,60630,Multi,,,41432,$102.58 ,,,,,"$3,999,000.00 ",167,No,-87.7497972,41.9662239
5144-5152 W Chicago Avenue,On-Market,Special Purpose,5144-5152 W Chicago Avenue,Chicago,IL,60651,N/A,,,,,0,,,,"$3,200,000.00 ",35,No,-87.754965,41.895244
Single Tenant Retail on Busy Archer Ave Offered at a 10 Cap,On-Market,Retail,4269 S Archer Ave,Chicago,IL,60632,N/A,,,6000,$75.00 ,,,,,"$450,000.00 ",1505,No,-87.7012334,41.8157919
1458 W Taylor St,On-Market,"Mixed Use, Retail",1458 W Taylor St,Chicago,IL,60607,N/A,,,,,6,,"$221,360.00 ",7.09%,"$3,120,000.00 ",1,No,-87.6639124,41.8694692
The Shoppes of Edgebrook,On-Market,"Mixed Use, Office, Retail",5400 W Devon Ave,Chicago,IL,60646,Multi,,,17710,$166.57 ,9,,"$259,934.00 ",8.81%,"$2,950,000.00 ",560,No,-87.763895,41.997635
Lincoln Park Mews,On-Market,Multifamily,1810 N Wells St,Chicago,IL,60614,N/A,,,22771,$754.69 ,18,"$958,333.00 ","$887,745.00 ",5.15%,"$17,250,000.00 ",188,No,-87.63487882,41.91531146
2210-2216 South Michigan Ave,On-Market,"Mixed Use, Office, Retail",2210 S Michigan Ave,Chicago,IL,60616,Multi,,,22737,,6,,"$479,168.00 ",,,1832,Yes,-87.624271,41.8524303
4537 N. Clark St,On-Market,"Retail, Office",4537 N Clark St,Chicago,IL,60640,N/A,,,,$11.00 ,,,,,"$749,000.00 ",159,No,-87.6664858,41.9646379
Luxury Corporate Housing Business for sale,On-Market,Special Purpose,9.9 Luxury Housing,Chicago,IL,60601,N/A,,,,,,,,,"$9,900,000.00 ",364,No,-87.6197056,41.8839927
"755 North Wells Street  River North  Chicago, IL",On-Market,"Mixed Use, Office, Retail",755 N Wells St,Chicago,IL,60654,Multi,,,13434,$617.84 ,6,,"$623,096.00 ",7.51%,"$8,300,000.00 ",131,No,-87.6338435,41.8964038
9826 Sayre Ave,On-Market,Multifamily,9826 Sayre Ave,Chicago Ridge,IL,60415,N/A,,,24831,$148.78 ,18,"$136,111.11 ",,6.91%,"$2,450,000.00 ",165,Yes,-87.7943954,41.7127728
601 W Randolph,On-Market,"Mixed Use, Office",601 W Randolph St,Chicago,IL,60661,Multi,,,14800,,,,"$486,793.00 ",7.16%,"$6,800,000.00 ",34,No,-87.64284675,41.88444307
1435 W Lexington Street,On-Market,Multifamily,1435 W Lexington St,Chicago,IL,60607,N/A,,,,,6,,"$108,220.00 ",7.21%,"$1,500,000.00 ",196,No,-87.66310125,41.87251131
"For Sale or Lease 812 N. Dearborn Street, Chicago, IL",On-Market,"Mixed Use, Office, Retail",812 N Dearborn St,Chicago,IL,60610,N/A,,,10084,,,,,,,76,No,-87.62976464,41.89708817
"2200 N Cicero Ave, Chicago, IL 60639",On-Market,Retail,2200 N Cicero Ave,Chicago,IL,60639,Vacant,,,1500,,,,,,"$2,500,000.00 ",10,No,-87.7465509,41.9209697
3135 N Clybourn,On-Market,Retail,3135 N Clybourn Ave,Chicago,IL,60618,Multi,,0.1,15625,$268.80 ,2,,,,"$4,200,000.00 ",1107,No,-87.68719569,41.9388172
2241 S Wabash Avenue,On-Market,"Special Purpose, Land",2241 S Wabash Avenue,Chicago,IL,60616,N/A,,,,,0,,,,"$3,350,000.00 ",21,Yes,-87.6250414,41.8516494
5419-5421 W Madison St,On-Market,Retail,5419-5421 W Madison St,Chicago,IL,60644,Vacant,,,3000,,2,,,,"$434,900.00 ",33,No,-87.7609521,41.8801423
Wicker Park - Retail  Medical with 23-car parking,On-Market,"Mixed Use, Office, Retail",1455 N Milwaukee Ave,Chicago,IL,60622,Multi,,,,,2,,"$435,121.00 ",7.63%,"$5,700,000.00 ",130,No,-87.6739506,41.9083711
3100 W Montrose Avenue,On-Market,Special Purpose,3100 W Montrose Avenue,Chicago,IL,60618,N/A,,,4800,,0,,,,"$1,199,000.00 ",271,No,-87.7060494,41.9615461
Rehabbed 6-Unit in Bronzeville,On-Market,Multifamily,4543 S St Lawrence Ave,Chicago,IL,60653,N/A,,,,,6,"$233,333.33 ",,,"$1,400,000.00 ",367,Yes,-87.6112204,41.8118676
Verizon  10 Year Net Lease  Largest Verizon Franchisee,On-Market,Retail,6340 N Northwest Hwy,Chicago,IL,60631,Single,,10,2540,,,,"$130,983.00 ",6.00%,"$2,180,000.00 ",125,No,-87.8066042,41.9966841
738 W Randolph St,On-Market,Retail,738 W Randolph St,Chicago,IL,60607,N/A,,,8000,,,,,,,517,No,-87.650714,41.8733696
Yondorf Hall,On-Market,Office,758 W North Ave,Chicago,IL,60610,Multi,,,21469,$209.60 ,,,,,"$4,500,000.00 ",13,No,-87.64816001,41.91090028
"Absolute Net NNN Walgreens - California Ave Chicago, IL",On-Market,Retail,2744 N California Ave,Chicago,IL,60647,Single,25,9.2,12515,$591.29 ,,,"$555,000.00 ",7.50%,"$7,400,000.00 ",333,No,-87.69784321,41.93175687
845 W Chicago Avenue,On-Market,"Special Purpose, Land",845 W Chicago Avenue,Chicago,IL,60642,N/A,,,,,0,,,,"$11,900,000.00 ",35,No,-87.6495666,41.896187
1846 N. La Crosse Ave,On-Market,Industrial,1846 N. La Crosse Ave,Chicago,IL,60639,N/A,,,39464,,,,,,"$1,875,000.00 ",258,No,-87.7481465,41.9138143
Ground Floor Commercial Condo in Fulton River District,On-Market,Retail,291 N Union Ave,Chicago,IL,60661,Single,,,623,,1,,,,"$205,000.00 ",0,No,-87.6455872,41.88651194
TPAL - 4348-58 S Prairie218-224 E 44th,On-Market,Multifamily,4348 S Prairie Ave,Chicago,IL,60653,N/A,,,,,31,,"$602,514.00 ",6.35%,"$9,488,000.00 ",62,No,-87.61983636,41.81475335
1500 W Taylor - Little Italy Building For Sale w Parking,On-Market,Mixed Use,1500 W Taylor St,Chicago,IL,60607,N/A,,,15000,$266.67 ,,,,,"$4,000,000.00 ",289,No,-87.6643173,41.869504
New Construction 3-Unit in Washington Park,On-Market,Multifamily,5530 S Michigan Ave,Chicago,IL,60637,N/A,,,4200,,3,,,,"$1,050,000.00 ",13,Yes,-87.6228242,41.7933979
4507- 4533 N. Kedzie Ave,On-Market,"Retail, Industrial, Land",4507- 4533 N. Kedzie Ave,Chicago,IL,60625,N/A,,,,,,,,,"$2,999,000.00 ",1937,No,-87.708121,41.9640002
USA Off Market North 15 Trophy Hotels in USA for Sale,On-Market,Hospitality,N Columbus Dr,Chicago,IL,60601,N/A,,,,,,"$160,000.00 ","$999,999,999.00 ",12.50%,"$8,000,000,000.00 ",1304,No,-87.6205703,41.8867536
"Motor Row - 2337 S. Michigan Ave., Chicago, IL",On-Market,Retail,2337 S Michigan Ave,Chicago,IL,60616,N/A,,,8928,,,,,,"$2,799,000.00 ",10,Yes,-87.6237082,41.85007927
Niles Flex Bldg Class B For Sale,On-Market,"Industrial, Office, Retail",7400 N Milwaukee Ave,Niles,IL,60714,N/A,,,2340,,1,,,,"$499,000.00 ",8,No,-87.8048992,42.0156044
Midwest CNC Machine  Mold Business,On-Market,Business for Sale,12345,Chicago,IL,60660,Single,,0,4200,,1,,,,"$625,000.00 ",131,No,-87.663045,41.9901263
1329 W 18th St  Renovated Mixed-use,On-Market,"Mixed Use, Multifamily",1329 W 18th St,Chicago,IL,60608,Multi,,,7600,$201.97 ,6,,,,"$1,450,000.00 ",573,No,-87.66001213,41.85787404
Single Tenant Outdoor Storage Facility,On-Market,Industrial,3019 East End Ave,South Chicago Heights,IL,60411,Single,,,22364,$78.70 ,1,,,8.53%,"$1,760,000.00 ",166,No,-87.6326528,41.4829748
"Providence of God  4 Building Campus  Chicago, IL",On-Market,"Mixed Use, Multifamily, Special Purpose",717 W 18th St,Chicago,IL,60616,N/A,,,55515,,,,,,"$3,130,000.00 ",145,No,-87.64486759,41.85756388
"3 Assets Church, School  Parking Lot Available",On-Market,"Retail, Special Purpose",1800 S Union Ave,Chicago,IL,60616,N/A,,,40623,,3,,,,"$1,980,000.00 ",145,No,-87.64480405,41.85757599
Maxwell Express- 1056-58 W 87th St,On-Market,Retail,1058 W 87th St,Chicago,IL,60620,N/A,,,,,1,,,,"$250,000.00 ",382,Yes,-87.6507486,41.7361894
3824 N Clark Street,On-Market,"Mixed Use, Multifamily, Office, Retail",3824 N Clark St,Chicago,IL,60613,Multi,,,4686,$319.68 ,4,,"$109,828.00 ",7.33%,"$1,498,000.00 ",216,No,-87.66021103,41.9517681
3421-3433 W. 48th Place,On-Market,Industrial,3421-3433 W. 48TH PLACE,Chicago,IL,60632,N/A,,,53000,,,,,,,1345,No,-87.7097167,41.8051849
4515 North Ravenswood Avenue,On-Market,"Retail, Office",4515 N Ravenswood Ave,Chicago,IL,60640,Vacant,,,8000,,,,,,,52,No,-87.6736065,41.9639448
"Chicago - 3856 W 26th St  For Sale - 7,416 SF",On-Market,Retail,3856 W 26th St,Chicago,IL,60623,Vacant,,,7416,,,,,,,211,No,-87.7218364,41.8444801
Sherwin-Williams,On-Market,Retail,6012 S Archer Ave,Chicago,IL,60638,Single,20,5.1,5800,,,,"$129,773.00 ",6.50%,"$1,996,507.00 ",12,No,-87.7670285,41.7952915
2158 w. Grand ave. commercial condo SaleLease239k2500G,On-Market,"Office, Retail",2158 W Grand Ave,Chicago,IL,60612,N/A,,,1200,,,,,,"$239,000.00 ",29,No,-87.68170795,41.89075426
5734-48 S Ashland Ave,On-Market,"Retail, Land",5734-48 S Ashland Ave,Chicago,IL,60636,N/A,,,3740,,,,,,"$700,000.00 ",11,No,-87.664869,41.78931
501 s wells street,On-Market,"Hospitality, Mixed Use, Multifamily, Retail",501 S Wells St,Chicago,IL,60607,N/A,,,,,,,,,"$2,750,000.00 ",134,No,-87.63369579,41.87571173
"Chicago - 6335 N. Western Ave  For Sale - 9,090 SF",On-Market,"Office, Retail",6335 N Western Ave,Chicago,IL,60659,Vacant,,,9090,,,,,,"$2,500,000.00 ",105,No,-87.6895113,41.9968912
2701 N Kildare Ave,On-Market,Industrial,2701 N Kildare Ave,Chicago,IL,60639,Multi,,,203518,,,,,,,15,No,-87.7341138,41.9305003
2653-59 W. Division St,On-Market,"Retail, Mixed Use",2653-59 W. Division St,Chicago,IL,60622,N/A,,,17728,,12,,,,"$2,495,000.00 ",228,No,-87.6940522,41.9027429
5326 N Kedzie Ave,On-Market,Retail,5326 N Kedzie Ave,Chicago,IL,60625,N/A,,,,,,,,,"$565,000.00 ",35,No,-87.709064,41.9785526
"2944 W Devon Ave , Chicago, IL 60659",On-Market,"Mixed Use, Multifamily, Retail",2944 W Devon Ave,Chicago,IL,60659,Multi,,,8975,$178.27 ,7,,"$120,000.00 ",7.50%,"$1,600,000.00 ",249,No,-87.7039547,41.9976873
Dollar Tree,On-Market,Retail,11055 S Western Ave,Chicago,IL,60643,Single,10,8.7,15717,$171.64 ,,,"$180,745.00 ",6.70%,"$2,697,687.00 ",174,No,-87.680842,41.6926029
The Southside Gold Portfolio,On-Market,Multifamily,7556 S Eggleston Ave,Chicago,IL,60620,N/A,,,,,212,"$108,656.32 ","$1,979,244.00 ",8.60%,"$23,035,140.00 ",47,Yes,NA,NA
"Full-Floor Luxury Suite 6 East Monroe Street, Suite 300",On-Market,"Multifamily, Office",6 E Monroe St,Chicago,IL,60603,N/A,,,3000,$165.00 ,,,,,"$495,000.00 ",223,No,-87.62778025,41.88074013
MF 14 unit 8 Cap,On-Market,Multifamily,3752 W Huron St,Chicago,IL,60624,N/A,,,12200,,14,,,,"$1,500,000.00 ",361,Yes,-87.7209224,41.8938872
5324 N Kedzie Ave,On-Market,Retail,5324 N Kedzie Ave,Chicago,IL,60625,N/A,,,9000,,,,,,"$695,000.00 ",35,No,-87.7092179,41.9784008
Southside Five Portfolio,On-Market,"Mixed Use, Multifamily",7600 S Kingston Ave,Chicago,IL,60649,N/A,,,146108,,155,,,9.25%,"$15,250,000.00 ",70,Yes,NA,NA
5924 W Lawrence Avenue,On-Market,"Retail, Office, Mixed Use",5924 W Lawrence Avenue,Chicago,IL,60630,Vacant,,,2000,,,,,,"$314,000.00 ",861,No,-87.7758336,41.9678632
2 UNIT RETAIL INVESTMENT IN VIBRANT BUCKTOWN NEIGHBORHOOD,On-Market,Retail,1915 N Damen Ave,Chicago,IL,60647,Multi,,,3160,,2,,"$89,508.00 ",7.80%,"$1,150,000.00 ",108,No,-87.67761122,41.91645944
6501 N Western Avenue,On-Market,Special Purpose,6501 N Western Avenue,Chicago,IL,60645,Vacant,,,,,,,,,"$1,999,000.00 ",340,No,-87.68987985,41.99963033
West Loop Development Opportunity,On-Market,Multifamily,125 S Racine Ave,Chicago,IL,60607,N/A,,,16905,,4,,,,"$3,990,000.00 ",181,No,-87.65704969,41.87928486
3115 N Lincoln Ave,On-Market,"Retail, Mixed Use",3115 N Lincoln Ave,Chicago,IL,60657,N/A,,,3052,$311.27 ,,,,,"$950,000.00 ",3,No,-87.6666544,41.938492
WALGREENS,On-Market,Retail,1533 E 67th St,Chicago,IL,60637,Single,,4.7,14332,$275.00 ,,,"$365,000.00 ",9.25%,"$3,946,000.00 ",6,Yes,-87.5878245,41.7731183
9421 S Stony Is Ave,On-Market,Retail,9421 S Stony Is Ave,Chicago,IL,60617,Vacant,,,3000,,,,,,"$1,700,000.00 ",467,No,-87.5842622,41.7237941
Webster Place,On-Market,Retail,1471 W Webster Ave,Chicago,IL,60614,Multi,,7.9,136130,,,,,,,73,No,-87.66442755,41.92163879
5717 W. Grand Ave,On-Market,"Retail, Industrial, Special Purpose",5717 W. Grand Ave,Chicago,IL,60639,N/A,,,8150,$92.02 ,,,,,"$750,000.00 ",129,No,-87.7690059,41.9190539
CAVA - 15YR Lease - Premier Single-Tenant Retail,On-Market,Retail,1484 N Milwaukee Ave,Chicago,IL,60622,Single,14.3,14.3,3100,,1,,"$214,045.00 ",6.00%,"$3,567,000.00 ",440,No,-87.67515247,41.90888198
2346 S Whipple St,On-Market,Multifamily,2346 S Whipple St,Chicago,IL,60623,N/A,,,5500,$154.55 ,6,"$141,666.67 ","$67,663.00 ",7.96%,"$850,000.00 ",13,No,-87.7017577,41.8486469
7270 S South Shore Dr,On-Market,Multifamily,7270 S South Shore Dr,Chicago,IL,60649,N/A,,,40000,,53,"$137,735.85 ","$569,496.00 ",7.80%,"$7,300,000.00 ",155,No,-87.5610784,41.763986
5710 S. Central Avenue,On-Market,Industrial,5710 S Central Ave,Chicago,IL,60638,N/A,,,4250,$227.06 ,,,,,"$965,000.00 ",70,No,-87.762489,41.788643
Montrose Auto Clinic,On-Market,Retail,5801 W Montrose Ave,Chicago,IL,60634,Vacant,,0,3000,$233.30 ,1,,,0.00%,"$699,900.00 ",783,No,-87.77228858,41.96043473
101 E 134th St,On-Market,Industrial,101 E 134th St,Chicago,IL,60827,N/A,,,,,,,,,"$1,200,000.00 ",462,Yes,-87.619857,41.65166
Former Bristol,On-Market,Retail,2152 N Damen Ave,Chicago,IL,60647,N/A,,,4153,,,,,,"$1,600,000.00 ",104,No,-87.67798893,41.92106212
1455 S Hamlin,On-Market,Multifamily,1455 S Hamlin Ave,Chicago,IL,60623,N/A,,,6250,$76.80 ,6,"$80,000.00 ","$53,962.00 ",11.24%,"$480,000.00 ",664,Yes,-87.7198658,41.8611609
2500 W Chicago Ave,On-Market,Retail,2500 W Chicago Ave,Chicago,IL,60622,N/A,,,17000,,,,,7.20%,"$3,500,000.00 ",73,No,-87.6895897,41.8959053
STNL Fulton Market Retail Condo,On-Market,Retail,657 W Fulton St,Chicago,IL,60661,Single,15.3,8.5,5142,,,,"$218,542.00 ",6.43%,"$3,400,000.00 ",61,No,-87.6454574,41.8865368
4746 S Ashland Ave,On-Market,Retail,4746 S Ashland Ave,Chicago,IL,60609,Single,,,2438,$71.78 ,1,,,,"$175,000.00 ",15,No,-87.66501525,41.80723622
Turn-Key RetailOffice Space for Sale or Lease in Lakeview,On-Market,"Office, Retail",2048 W Belmont Ave Unit 1,Chicago,IL,60618,Vacant,,,1650,,1,,,,"$410,000.00 ",33,No,-87.68022727,41.93954337
"Commercial Condo, Tri-Taylor RetailOffice Storefront",On-Market,Retail,1019 S Western Ave,Chicago,IL,60612,Vacant,,,600,,,,,,"$119,900.00 ",138,No,-87.6858692,41.8688008
2958 N Milwaukee Ave,On-Market,Retail,2958 N Milwaukee Ave,Chicago,IL,60618,Single,,7,45183,,,,,,"$3,000,000.00 ",46,No,-87.71731578,41.93490843
769-775 W. Jackson,On-Market,Retail,769-775 W Jackson Street,Chicago,IL,60661,N/A,,,11522,,4,,"$148,337.00 ",,,133,No,-87.6468208,41.8776723
124 W 47th Street,On-Market,Industrial,124 W 47th St,Chicago,IL,60609,N/A,,,20000,,1,,,,"$425,000.00 ",598,Yes,-87.6293476,41.8093821
Free Standing Retail Building with on Site Parking,On-Market,Retail,6209 W North Ave,Oak Park,IL,60302,Vacant,,,14000,$196.43 ,,,,,"$2,750,000.00 ",280,No,-87.78150256,41.90925922
4457 S Cottage Grove Avenue,On-Market,"Retail, Land",4457 S Cottage Grove Avenue,Chicago,IL,60653,N/A,,,,,0,,,,"$599,000.00 ",19,Yes,-87.6063756,41.8133184
3450 N Troy - Current 7.05 Cap,On-Market,Multifamily,3450 N Troy St,Chicago,IL,60618,N/A,,,5800,$361.21 ,6,"$349,166.67 ","$153,598.00 ",7.33%,"$2,095,000.00 ",134,No,-87.7068507,41.9442681
114 N Aberdeen,On-Market,Mixed Use,114 N Aberdeen St,Chicago,IL,60607,N/A,,,8500,,3,,,,,289,No,-87.65459565,41.88348662
DRIVE GREEN CAR CARE BUILDING,On-Market,"Industrial, Retail, Special Purpose",7737 S Kedzie Ave,Chicago,IL,60652,N/A,,,4700,,1,,,,"$750,000.00 ",122,No,-87.7023175,41.7522538
6232-6238 N Broadway St,On-Market,"Office, Retail",6232 N Broadway,Chicago,IL,60660,N/A,,,,,4,,,,"$625,000.00 ",42,No,-87.66050506,41.99564242
Davis Apartments,On-Market,Multifamily,1025 - 41 W Vermont St,Calumet Park,IL,60827,N/A,,,,,60,,,7.00%,"$5,950,000.00 ",243,No,-87.6426062,41.6617168
178 North Wells Street,On-Market,"Multifamily, Office, Mixed Use",178 N Wells St,Chicago,IL,60606,N/A,,,4500,,,,,,"$1,950,000.00 ",681,No,-87.6330788,41.8853577
6071 S Archer Ave,On-Market,Retail,6071 S Archer Ave,Chicago,IL,60638,N/A,,,13000,$138.00 ,,,,,"$1,650,000.00 ",38,No,-87.7692305,41.79442
West Washington,On-Market,Industrial,1201 W Washington St,West Chicago,IL,60185,N/A,,,11185,,,,,,"$4,500,000.00 ",174,No,-88.2257267,41.8802668
4240-42 S Calumet,On-Market,Multifamily,4240 S Calumet Ave,Chicago,IL,60653,N/A,,,,,6,,"$126,818.00 ",6.50%,"$1,951,000.00 ",62,No,-87.61835827,41.81707541
"Lincoln Park - 1625 N. Halsted St., Chicago, Fmr. Restaurant",On-Market,"Mixed Use, Retail",1625 N Halsted St,Chicago,IL,60614,N/A,,,2019,,5,,,,,96,No,-87.64839788,41.91171405
4750 S Michigan Ave. - Strong Assumable Debt,On-Market,Multifamily,4750 S Michigan Ave,Chicago,IL,60615,N/A,,,31700,$178.23 ,24,"$235,416.67 ","$399,834.00 ",7.08%,"$5,650,000.00 ",36,Yes,-87.6231749,41.8076714
5807 N Lincoln Avenue,On-Market,"Retail, Land",5807 N Lincoln Avenue,Chicago,IL,60659,N/A,,,,,0,,,,"$799,000.00 ",11,No,-87.7013546,41.9871473
State and Wabash Dual Offering,On-Market,"Mixed Use, Multifamily, Office, Retail",2001 S State St,Chicago,IL,60616,Multi,,,,,28,,"$879,608.00 ",,,1505,Yes,-87.6267314,41.855119
526 N Western Ave,On-Market,"Hospitality, Industrial, Land, Office, Special Purpose",526 N Western Ave,Chicago,IL,60612,N/A,,,10500,,1,,,,"$1,800,000.00 ",63,No,-87.68680804,41.89170491
8701 South Ashland,On-Market,Retail,8701 S Ashland Ave,Chicago,IL,60620,N/A,,,5300,$317.15 ,,,,,"$1,680,920.00 ",554,Yes,-87.6628922,41.73573381
"Jack's Corner  Starbucks, Aspen Dental, ATT",On-Market,Retail,5219 Touhy Ave,Chicago,IL,60645,Multi,,6.8,16940,,,,"$679,667.00 ",6.65%,"$10,225,000.00 ",137,No,-87.6926257,42.0105286
55th  Racine,On-Market,"Retail, Land",1158 W Garfield blvd,Chicago,IL,60609,N/A,,,31545,$24.06 ,,,,,"$759,000.00 ",1246,No,-87.6482474,41.8062766
Halsted on the Park,On-Market,Multifamily,2801 S Halsted St,Chicago,IL,60608,N/A,,,,,,,,,,38,No,-87.64644668,41.84339191
United Rentals - Chicago IL,On-Market,Retail,4027 S Wells St,Chicago,IL,60609,Single,5.1,2.8,12000,$352.75 ,,,"$285,711.00 ",6.75%,"$4,233,000.00 ",409,Yes,-87.6323438,41.8210346
2310 - 2340 S. Indiana Avenue,On-Market,"Industrial, Self Storage",2310 S Indiana Ave,Chicago,IL,60616,Vacant,,,282720,,,,,,,1257,Yes,NA,NA
Free-Standing Manufacturing Warehouse  4437-47 W Rice St,On-Market,Industrial,4437 W Rice St,Chicago,IL,60651,Single,,,21978,$52.33 ,,,,,"$1,150,000.00 ",354,Yes,-87.73752597,41.89611019
3850 W Cortland St,On-Market,Industrial,3850 W. Cortland St.,Chicago,IL,60647,Multi,,,144663,$27.65 ,,,,,"$4,000,000.00 ",2764,No,-87.7232981,41.9154926
2556 N Laramie Avenue,On-Market,"Retail, Land",2556 N Laramie Avenue,Chicago,IL,60639,N/A,,,,,0,,,,"$325,000.00 ",217,No,-87.7565018,41.9276434
Davis Building - Edgewater  For Sale or Lease,On-Market,"Retail, Mixed Use",5250 N Broadway,Chicago,IL,60640,Multi,,,14000,$189.29 ,,,,,"$2,650,000.00 ",384,No,-87.6603479,41.9779138
Rainbow Beach Care Center,On-Market,"Senior Living, Special Purpose",7325 S Exchange Ave,Chicago,IL,60649,N/A,,,66000,,93,,,,"$4,900,000.00 ",138,No,-87.56266033,41.76198457
Chicagoland Retail Portfolio at High Cap Rates,On-Market,Retail,10200-10244 S Vincennes Ave,Chicago,IL,60643,N/A,,,,,,,,,,217,Yes,NA,NA
Bank of America Ground Lease 1M 5-Mile Population,On-Market,Retail,3425 W 26th St,Chicago,IL,60623,Single,,5.5,3874,,,,"$312,301.00 ",7.00%,"$4,461,000.00 ",362,No,-87.7106768,41.8442945
525-551 s wells street gateway to chicago,On-Market,Land,525 S Wells St,Chicago,IL,60607,N/A,,,,,,,,,,20,No,-87.6336348,41.87520644
Avondale - Logan Square Prime Land For Sale Chicago IL 60618,On-Market,Land,3942 W Belmont Ave,Chicago,IL,60618,N/A,,,,,,,,,,818,No,NA,NA
11000 Indiana,On-Market,Multifamily,11000 S Indiana Ave,Chicago,IL,60628,N/A,,,3900,$110.26 ,6,"$71,666.67 ","$39,468.00 ",9.18%,"$430,000.00 ",495,Yes,-87.61826193,41.69426027
3735 W. Belmont Ave,On-Market,"Office, Industrial",3735 W. Belmont Ave,Chicago,IL,60618,N/A,,,12000,,,,,,"$1,025,000.00 ",168,No,-87.7211483,41.9389172
3265 W Armitage Avenue,On-Market,"Office, Mixed Use",3265 W Armitage Ave,Chicago,IL,60647,Vacant,,,11250,,,,,0.00%,"$975,000.00 ",1066,No,-87.7095704,41.9172055
1441  1455 W 103rd St,On-Market,"Mixed Use, Multifamily, Retail",1455 W 103rd St,Chicago,IL,60643,N/A,,,10000,$145.00 ,12,"$120,833.33 ","$116,107.00 ",8.01%,"$1,450,000.00 ",664,No,-87.65920687,41.706726
Millie on Michigan Retail,On-Market,Retail,300 N Michigan Ave,Chicago,IL,60601,Vacant,,,25209,,4,,,,,61,No,-87.62449337,41.88704159
600 S Clark Street,On-Market,Retail,600 S Clark St,Chicago,IL,60605,N/A,,,59884,,,,,,,133,No,-87.6308408,41.8744144
LOGAN SQUARE MIXED USE,On-Market,"Mixed Use, Office, Retail",2815 N Kimball Ave,Chicago,IL,60618,N/A,,,4000,,2,,,,,439,No,-87.71233398,41.93259032
Walgreens,On-Market,Retail,6016 W 63rd St,Chicago,IL,60638,Single,13,10.4,14050,$338.08 ,,,"$351,250.00 ",7.39%,"$4,750,000.00 ",67,No,-87.7724129,41.7780737
4417-19 S Indiana,On-Market,Multifamily,4417 S Indiana Ave,Chicago,IL,60653,N/A,,,,,10,,"$221,425.00 ",6.40%,"$3,459,000.00 ",62,No,-87.621301,41.81418256
12000 S. Doty Ave.,On-Market,Industrial,12000 S Doty Ave,Chicago,IL,60628,N/A,,,24400,$34.84 ,4,"$212,500.00 ",,,"$850,000.00 ",468,No,-87.60191419,41.67596851
1501-1505 N MILWAUKEE,On-Market,"Mixed Use, Multifamily, Retail",1501 N Milwaukee Ave,Chicago,IL,60622,Multi,,,11451,,5,,"$433,513.00 ",6.24%,"$6,950,000.00 ",21,No,-87.67496191,41.9087578
10855 S Halsted St,On-Market,Retail,10855 S Halsted St,Chicago,IL,60628,N/A,,,2700,$166.63 ,,,,,"$449,900.00 ",382,No,-87.64247024,41.6964086
901 W. Lake Street,On-Market,"Land, Mixed Use, Retail",901 W Lake St,Chicago,IL,60607,N/A,,,25000,,,,,,,210,No,-87.64990707,41.88561527
3214 W Bryn Mawr Avenue,On-Market,Special Purpose,3214 W Bryn Mawr Avenue,Chicago,IL,60659,N/A,,,,,0,,,,"$459,000.00 ",12,No,-87.7096331,41.9832253
9444 S. Lafayette Ave.,On-Market,Retail,9444 S Lafayette Ave,Chicago,IL,60620,Multi,,,5100,,2,,,,"$299,000.00 ",118,Yes,-87.6252928,41.7222713
"Dollar General  Chicago, IL",On-Market,Retail,5518 W Chicago Ave,Chicago,IL,60651,Single,,0.4,11650,,1,,"$107,565.00 ",15.40%,"$700,000.00 ",280,No,-87.76480329,41.89488482
5257 S Ashland Ave,On-Market,"Retail, Office",5257 S Ashland Ave,Chicago,IL,60609,Multi,,9,12901,,,,"$271,144.00 ",7.40%,"$3,750,000.00 ",643,Yes,-87.6643736,41.7982995
"110 Main St, West Chicago, IL 60185-2965",On-Market,Mixed Use,110 Main St,West Chicago,IL,60185,N/A,,,1675,,,,,,,33,No,-88.2048481,41.8842213
1821 W Berteau Ave,On-Market,Office,1821 W Berteau Ave,Chicago,IL,60613,N/A,,,18723,,,,,,,500,No,-87.6751829,41.9575892
3953 S. Michigan Ave. Opportunity Zone - M1-3 Potential B3,On-Market,Land,3953 S Michigan Ave,Chicago,IL,60653,N/A,,,,,,,,,,1041,No,-87.62313142,41.82198701
2954 N Sheffield Avenue - Retail  Medical Offering,On-Market,"Mixed Use, Office, Retail",2954 N Sheffield Ave,Chicago,IL,60657,Multi,,,12291,$480.03 ,6,"$983,333.33 ","$450,633.00 ",7.64%,"$5,900,000.00 ",316,No,-87.6541473,41.9360565
High Cash Flowing Restaurant for Sale with Real Estate,On-Market,Retail,N/A,Chicago,IL,N/A,Multi,19,19,1500,,,,,,"$1,800,000.00 ",102,No,NA,NA
Vacant Owner-UserValue-Add Loop Office Condo  Suite 1210,On-Market,Office,"55 W Wacker Drive, Suite 1210",Chicago,IL,60601,Vacant,,,,,,,,,"$1,055,000.00 ",1043,No,-87.6300102,41.8864753
AbsoluteCare Chicago,On-Market,"Office, Retail",2627 W Cermak Rd,Chicago,IL,60608,Single,10,10,8156,,,,"$285,460.00 ",7.50%,"$3,806,133.00 ",61,Yes,-87.6919023,41.8516779
11136 S. Vernon Ave.,On-Market,Multifamily,11136 S Vernon Ave,Chicago,IL,60628,N/A,,,6500,$101.54 ,6,,"$69,564.00 ",10.54%,"$660,000.00 ",104,Yes,-87.6124883,41.6916274
"4525 N Clark St, Chicago, IL 60640",On-Market,"Land, Retail",4525 N Clark St,Chicago,IL,60640,N/A,,0.2,6937,,4,,,,"$1,495,000.00 ",18,No,-87.666293,41.9642594
Corner Redevelopment Site at Elston  Central Avenues,On-Market,Land,5703 N Elston Ave,Chicago,IL,60646,N/A,,,,,,,,,"$1,200,000.00 ",497,No,-87.7685631,41.9853996
4500 S Western Ave,On-Market,"Retail, Multifamily, Mixed Use, Land",4500 S Western Ave,Chicago,IL,60609,N/A,,,18350,,,,,,"$429,900.00 ",302,No,-87.684961,41.8119439
9200 S Commercial Ave,On-Market,Retail,9200 S Commercial Ave,Chicago,IL,60617,N/A,,,48000,,,,,,"$2,000,000.00 ",248,No,-87.551676,41.728083
Mixed Use - Insomnia Cookies  3 4BR2BA Apts - Near UIC,On-Market,"Mixed Use, Multifamily, Retail",1335 W Taylor St,Chicago,IL,60607,Multi,,8.2,7220,$359.97 ,4,"$649,750.00 ","$163,750.00 ",6.30%,"$2,599,000.00 ",316,No,-87.66047157,41.86934263
1023 W Fulton Market Street,On-Market,"Retail, Mixed Use",1023 W Fulton Market,Chicago,IL,60607,N/A,,,,,,,,,"$3,200,000.00 ",774,No,-87.6531612,41.8865428
10535 S Torrence,On-Market,"Retail, Office",10535 S Torrence,Chicago,IL,60617,Single,,0,2000,$225.00 ,,,,0.00%,"$450,000.00 ",1315,No,-87.559342,41.7037287
Michigan Ave - Prime Location,On-Market,Business for Sale,77 E Adams St,Chicago,IL,60604,N/A,5,3,2085,,,,,,"$189,000.00 ",49,No,-87.62506486,41.87956277
2241-45 South Michigan Ave,On-Market,Office,2241-45 South Michigan Ave,Chicago,IL,60616,Multi,,,19257,,,,"$381,420.00 ",,,1832,Yes,-87.623308,41.851753
"6600 N Clark St, Chicago, IL 60626",On-Market,"Mixed Use, Multifamily, Retail",6600 N Clark St,Chicago,IL,60626,Multi,,,15450,$129.45 ,12,,"$111,551.00 ",5.58%,"$1,999,999.00 ",311,No,-87.672252,42.001854
Kedzie Ave Shopping Center,On-Market,Retail,3201-3213 W Lawrence,Chicago,IL,60625,N/A,,,33794,$195.48 ,,,,,"$5,500,000.00 ",257,No,NA,NA
6050 Eberhart,On-Market,Multifamily,6050 S Eberhart Ave,Chicago,IL,60637,N/A,,,,,3,,,,"$869,000.00 ",75,Yes,-87.6134871,41.7842508
3 Bay Auto Shop INVESTOR or OWNER,On-Market,Retail,3800 W Division St,Chicago,IL,60651,Single,5,3.9,1600,,1,,"$42,500.00 ",7.08%,"$600,000.00 ",1076,No,-87.72143126,41.90312658
4204 W. Lake St,On-Market,Office,4204 W Lake St,Chicago,IL,60624,N/A,,,43096,,,,,,,165,No,-87.7309195,41.8861446
Chinatown RestaurantRetail Space Unit 113,On-Market,Retail,2240 S Canal St,Chicago,IL,60616,Vacant,,,,,,,,,"$549,000.00 ",40,No,-87.63843646,41.85157683
The Gold Coast Collection,On-Market,Mixed Use,875 N Rush St,Chicago,IL,60611,N/A,,,42358,,11,,,,,341,No,NA,NA
663 E 50th St,On-Market,Multifamily,663 E 50th St,Chicago,IL,60615,N/A,,,,,3,,,,"$635,000.00 ",193,Yes,-87.6088602,41.8038549
255 W. 79th St.,On-Market,Retail,255 W 79th St,Chicago,IL,60620,Single,,,7000,,,,,13.15%,"$450,000.00 ",26,No,-87.6316716,41.750549
8143-8157 S Ashland Ave,On-Market,"Retail, Mixed Use, Land",8143-8157 S Ashland Ave,Chicago,IL,60620,N/A,,,,,,,,,"$225,000.00 ",53,No,-87.6632352,41.74519666
Med-Tail Strip Center  2018 Construction,On-Market,Retail,5521 S Kedzie Ave,Chicago,IL,60629,Multi,,4.2,12512,$475.00 ,5,,"$401,418.00 ",6.75%,"$5,950,000.00 ",141,No,-87.7031813,41.7926032
1310 N Cicero Ave,On-Market,Industrial,1310 N Cicero Ave,Chicago,IL,60651,N/A,,,6250,,,,,,"$625,000.00 ",98,No,-87.7462396,41.9046304
1533-1537 N Wieland St,On-Market,Multifamily,1533-1537 N Wieland St,Chicago,IL,60610,N/A,,,10740,,20,"$348,750.00 ","$394,718.00 ",5.66%,"$6,975,000.00 ",193,No,-87.6354884,41.9103844
Taco Bell,On-Market,Retail,7535 N Harlem Ave,Niles,IL,60714,Single,15.6,9.7,2409,"$1,124.64 ",,,"$149,009.00 ",5.50%,"$2,709,255.00 ",92,No,-87.80680484,42.01849977
63rd Street  S. Pulaski Road,On-Market,Land,63rd Street & S. Pulaski Road,Chicago,IL,60629,N/A,,,,,,,,,,633,No,-87.7226788,41.7786533
Redevelopment Opportunity Building  Land for Sale 60630,On-Market,"Mixed Use, Multifamily, Retail",4774 N Milwaukee Ave,Chicago,IL,60630,Vacant,,,4500,,3,,,,"$999,000.00 ",168,No,-87.7606114,41.967336
Highly Visible Land Site at Key Corner in Jefferson Park,On-Market,Land,5700 N Central Ave,Chicago,IL,60646,N/A,,,,,,,,,"$3,000,000.00 ",497,No,-87.7684467,41.9859553
"87th  Kedzie, Chicago - NEC",On-Market,Land,87th & S. Kedzie,Evergreen Park,IL,60652,N/A,,,,,,,,,,770,No,-87.70177361,41.73531761
1812 W Cortland St,On-Market,Multifamily,1812 W Cortland St,Chicago,IL,60622,N/A,,,5174,,6,"$325,000.00 ","$115,392.00 ",5.92%,"$1,950,000.00 ",26,No,-87.6733414,41.9162673
3344 Butler Avenue,On-Market,Industrial,3344 Butler Ave,South Chicago Heights,IL,60411,N/A,,,10000,,1,,,,"$470,000.00 ",14,No,-87.6292963,41.47707181
4101 S. State St,On-Market,Land,4101 S State St,Chicago,IL,60609,N/A,,,4463,$321.24 ,,,,,"$1,433,705.00 ",403,No,-87.625887,41.819965
Prime Chicago Mixed-Use Multi-Family  Office Space,On-Market,"Mixed Use, Multifamily, Office",2945 W Peterson Ave,Chicago,IL,60659,Multi,,,10000,$169.90 ,13,"$130,692.31 ","$106,532.00 ",6.27%,"$1,699,000.00 ",46,No,-87.7036372,41.9900965
1522-1524 Union Ave - Chicago Heights,On-Market,Industrial,1522 Union Ave,Chicago Heights,IL,60411,Vacant,,,26000,$15.38 ,1,"$400,000.00 ",,0.00%,"$400,000.00 ",418,Yes,-87.63311394,41.5033627
Turnkey 4-Unit West Loop Opportunity,On-Market,"Mixed Use, Multifamily, Retail",1041 W Madison St,Chicago,IL,60607,Multi,,,6100,,4,,,,"$2,400,000.00 ",153,No,-87.65365284,41.88171465
The 44,On-Market,Multifamily,4400 S Calumet Ave,Chicago,IL,60653,N/A,,,,,,,,,"$7,100,000.00 ",67,No,-87.6184297,41.8146414
2310 W Belmont Avenue,On-Market,Mixed Use,2310 W Belmont Avenue,Chicago,IL,60618,N/A,,,,,0,,,,"$1,299,000.00 ",30,No,-87.6861633,41.9396584
Versatile 15000 SF building in amazing location,On-Market,Industrial,5315 W 63rd St,Chicago,IL,60638,N/A,,,,,,,,,"$949,000.00 ",39,No,-87.7553538,41.7778996
Exceptional Visibility RetailRepair with a Dealer License,On-Market,"Business for Sale, Mixed Use, Retail, Special Purpose",3445 N Pulaski Rd,Chicago,IL,60641,Multi,,,8750,$137.14 ,2,,"$141,600.00 ",10.89%,"$1,200,000.00 ",256,No,-87.72672356,41.94409358
1720 W North Ave,On-Market,"Office, Retail",1720 W North Ave,Chicago,IL,60622,N/A,,,3670,,,,,,"$925,000.00 ",5,No,-87.6710157,41.9107991
7740 Claremont,On-Market,Industrial,7740 S Claremont Ave,Chicago,IL,60620,Vacant,,,12000,$34.92 ,1,"$419,000.00 ",,,"$419,000.00 ",758,No,-87.68162761,41.75250317
211 W Wacker Dr Unit 1610,On-Market,"Office, Retail",211 W Wacker Dr,Chicago,IL,60606,N/A,,,2800,$249.64 ,1,,,,"$649,000.00 ",574,No,-87.6345857,41.8867826
Unique Bldg at DivisionMilwaukee,On-Market,"Retail, Mixed Use",1209 N Milwaukee Ave,Chicago,IL,60642,N/A,,,20050,,,,,,,2002,No,-87.6666044,41.9038132
6027 N Kenmore Ave.,On-Market,Land,6027 N Kenmore Ave,Chicago,IL,60660,N/A,,,,,,,,,"$1,749,000.00 ",31,No,-87.6565445,41.9917734
7801 S. South Shore Drive,On-Market,Multifamily,7801 S South Shore Dr,Chicago,IL,60649,N/A,,,,,32,"$96,843.75 ","$217,569.00 ",7.02%,"$3,099,000.00 ",243,No,-87.5511407,41.7552145
414-424 E 71st Street,On-Market,Retail,414-424 E 71st Street,Chicago,IL,60619,Multi,3,2,4800,$114.58 ,3,,"$68,609.00 ",13.07%,"$525,000.00 ",1751,No,-87.6142346,41.7657484
3020 N Lincoln Ave,On-Market,"Office, Retail",3020 N Lincoln Ave,Chicago,IL,60657,N/A,,,13500,,,,,,"$2,200,000.00 ",75,No,-87.6645031,41.9365071
1133 S Wabash Ave.,On-Market,Retail,1133 S Wabash Ave,Chicago,IL,60605,N/A,,,1450,$316.55 ,,,,,"$459,000.00 ",311,No,-87.62588669,41.86821232
1239 S Avers - 3-Unit Multi-Family Investment Opportunity,On-Market,Multifamily,1239 S Avers Ave,Chicago,IL,60623,N/A,,,,,3,"$158,333.33 ","$44,042.00 ",9.27%,"$475,000.00 ",112,Yes,-87.7211697,41.8650253
819  831-847 N Leamington Avenue,On-Market,"Land, Mixed Use, Office",819 & 831-847 N. Leamington Avenue,Chicago,IL,60651,N/A,,,49546,,,,,,"$1,250,000.00 ",140,No,-87.7541135,41.8956678
10270 S Charles St,On-Market,Retail,10270 S Charles St,Chicago,IL,60643,N/A,,,7000,$67.86 ,3,,"$55,713.00 ",11.73%,"$475,000.00 ",664,No,-87.659126,41.707023
1631 S. Indiana Ave,On-Market,Retail,1631 S. Indiana Ave,Chicago,IL,60616,N/A,,,16500,,,,,,"$2,750,000.00 ",397,No,-87.6221634,41.8593487
Former Allstate Headquarters Bldg Homan Square Portfolio,On-Market,"Land, Mixed Use, Multifamily, Office",3245 W Arthington St,Chicago,IL,60624,Vacant,,,706000,$11.71 ,,,,,"$8,268,000.00 ",327,Yes,-87.70812746,41.87003658
Higgins Road Development Site,On-Market,Land,1410 W Higgins Rd,Park Ridge,IL,60068,N/A,,,,,,,,,"$1,150,000.00 ",231,No,-87.84338622,41.98731085
4235-37 S Calumet,On-Market,Multifamily,4235 S Calumet Ave,Chicago,IL,60653,N/A,,,,,8,,"$178,509.00 ",6.40%,"$2,789,000.00 ",62,No,-87.61836256,41.81729109
Fulton Market Mixed-Use,On-Market,"Mixed Use, Retail",1052 W Fulton St,Chicago,IL,60607,Multi,,,15000,$556.67 ,,,,,"$8,350,000.00 ",559,No,-87.65442741,41.88671702
3916 N Broadway,On-Market,"Office, Retail",3916 North Broadway,Chicago,IL,60613,Multi,5,5,4000,$375.00 ,,,"$110,200.00 ",7.35%,"$1,500,000.00 ",167,No,-87.6499153,41.9532092
Chicago Illinois Caterer,On-Market,"Business for Sale, Retail",Chicago Illinois Wedding Caterer,Chicago,IL,60601,N/A,,,4000,,,,,,"$695,000.00 ",269,No,-87.6197056,41.8839927
Irving Park Retail,On-Market,"Retail, Office",4253 N Kedzie Ave,Chicago,IL,60618,N/A,,,3750,,,,,,"$600,000.00 ",992,No,-87.7078515,41.9590785
944 W Huron Street,On-Market,Office,942 W Huron St,Chicago,IL,60642,Multi,,5,,,2,,,,"$1,800,000.00 ",573,No,-87.65171729,41.89504523
5201 W Madison St - Prime Redevelopment Opportunity,On-Market,Retail,5201 W Madison St,Chicago,IL,60644,Single,,,1962,,,,,,"$375,000.00 ",28,No,-87.75541626,41.87982508
Portfolio of 800 Land Sites Across Chicago,On-Market,"Land, Mixed Use, Multifamily, Retail",3515 E 95th St,Chicago,IL,60617,N/A,,,,,,,,,,74,Yes,-87.53829837,41.72287476
"2155 S. Carpenter Street, Chicago, IL 60608",On-Market,"Office, Industrial",2155 S Carpenter St,Chicago,IL,60608,Single,,,41237,,,,,,,623,No,-87.65290076,41.85256278
"Motor Row Opportunity Zone - 39,900 SF",On-Market,"Mixed Use, Office",2241 S Wabash Ave,Chicago,IL,60616,Vacant,,,,$106.52 ,3,,,,"$3,350,000.00 ",461,Yes,-87.6250414,41.8516494
Homan Square Portfolio  Various Options to Purchase,On-Market,"Hospitality, Industrial, Mixed Use, Multifamily, Office",3201 W Arthington St,Chicago,IL,60624,Multi,,,550000,,,,,,,711,Yes,-87.70584794,41.8700534
1945 N Winchester Ave,On-Market,Multifamily,1945 N Winchester Ave,Chicago,IL,60622,N/A,,,5174,,8,"$353,125.00 ","$181,742.00 ",6.43%,"$2,825,000.00 ",26,No,-87.67640341,41.91733412
Sushi Tokoro,On-Market,Business for Sale,4750 N Western Ave,Chicago,IL,60625,N/A,,,2200,,1,,,,"$480,000.00 ",88,No,-87.6891995,41.9682875
Gut Rehabed 3-Unit in Booming Washington park,On-Market,Multifamily,4933 S Wabash Ave,Chicago,IL,60615,N/A,,,3750,,3,,,,"$929,000.00 ",99,No,-87.6240031,41.8046801
Kinzie Corridor,On-Market,Office,431 N Wolcott Ave,Chicago,IL,60622,N/A,,,28442,$103.72 ,,,,,"$2,950,000.00 ",727,No,-87.6742503,41.8896569
2754 West Giddings Street,On-Market,Multifamily,2754 W Giddings St,Chicago,IL,60625,N/A,,,2800,$311.00 ,3,"$283,000.00 ","$46,221.00 ",5.44%,"$849,000.00 ",19,No,-87.6984972,41.9678727
660 N Wells,On-Market,"Land, Mixed Use, Retail",660 N Wells St,Chicago,IL,60610,Single,,3.6,13125,,,,,,,39,No,-87.6345194,41.8941717
6415-6433 Ravenswood Ave,On-Market,"Office, Industrial",6415-6433 Ravenswood Ave,Chicago,IL,60626,N/A,,,38504,$89.58 ,,,"$286,127.09 ",,"$3,449,000.00 ",573,No,-87.6746775,41.9986422
5744 N. Ridge Ave,On-Market,Retail,5744 N Ridge Ave,Chicago,IL,60660,N/A,,,4000,,4,,,,"$599,000.00 ",138,No,-87.6648461,41.9863353
3743 W Belmont Avenue,On-Market,"Retail, Industrial",3743 W Belmont Ave,Chicago,IL,60618,N/A,,,13000,,2,,"$85,760.00 ",,,1136,No,-87.7214438,41.9389118
Emerald 6 Unit,On-Market,Multifamily,7152 S Emerald Ave,Chicago,IL,60621,N/A,,,5400,$125.93 ,6,"$113,333.33 ","$72,360.00 ",10.64%,"$680,000.00 ",337,Yes,-87.64299152,41.76353374
3428 S King Drive,On-Market,"Special Purpose, Land",3428 S King Drive,Chicago,IL,60616,N/A,,,,,0,,,,"$2,249,000.00 ",75,No,-87.6176237,41.8320263
8658 S Sacramento Ave  Chicago,On-Market,Office,8658 S Sacramento Ave,Chicago,IL,60652,Multi,,16.4,22174,,2,,"$449,396.00 ",6.50%,"$6,913,792.00 ",111,No,-87.698093,41.7355703
"Compass, Inc.  Chicago, IL",On-Market,"Office, Retail",55 E Erie St,Chicago,IL,60611,Single,7,6.2,3979,$730.32 ,1,,"$217,946.00 ",7.50%,"$2,905,947.00 ",53,No,-87.62651623,41.89409721
2858 W Devon Avenue,On-Market,Retail,2858 W Devon Avenue,Chicago,IL,60659,Vacant,,,3700,,,,,,"$899,000.00 ",188,No,-87.701962,41.9977766
East Side Chicago Liquor Store,On-Market,Retail,123 Confidential,Chicago,IL,60617,N/A,,,,,1,,,,"$290,000.00 ",11,No,-87.70073615,41.7250279
5101 W. Division St.,On-Market,"Office, Retail, Special Purpose",5101 W Division St,Chicago,IL,60651,N/A,,,9000,$72.11 ,,,$0.00 ,,"$649,000.00 ",25,No,-87.7536521,41.9020151
5252 N Western Avenue,On-Market,"Special Purpose, Land",5252 N Western Avenue,Chicago,IL,60625,N/A,,,,,0,,"$367,000.00 ",,"$2,549,000.00 ",75,No,-87.689468,41.9774587
1443 W. Belmont  Lakeview  Commercial Condo For SALE,On-Market,"Office, Retail",1443 W Belmont Ave,Chicago,IL,60657,Vacant,,,1200,,1,,,,"$259,000.00 ",8,No,-87.66560286,41.93976626
THREE LOT PROPERTY IN ARCADIA TERRACE,On-Market,"Land, Mixed Use",5620 N Western Ave,Chicago,IL,60659,Multi,,,8000,,5,,"$81,269.00 ",6.70%,"$1,199,000.00 ",407,No,-87.6897539,41.9838341
Prime Commercial Parcel,On-Market,"Retail, Multifamily, Land",4901 W 47th St,Chicago,IL,60638,Single,,,33542,,,,,,,35,No,-87.7460024,41.8073232
"Portage Park  For Sale - 6,000",On-Market,Land,3930 N Kilpatrick Ave,Chicago,IL,60641,N/A,,,,,,,,,,260,No,-87.7449368,41.9523413
"1813 W 63rd St , Chicago, IL 60636",On-Market,"Mixed Use, Multifamily, Retail",1813 W 63rd St,Chicago,IL,60636,N/A,,,,,,,,,"$469,900.00 ",146,No,-87.6697638,41.7790881
557 Polk Street,On-Market,Office,557 W Polk St,Chicago,IL,60607,Multi,,,30000,,,,,,"$3,500,000.00 ",46,No,-87.64190145,41.87195016
Dan's Hot Dogs- 9314 S Ashland Ave,On-Market,"Retail, Business for Sale",9314 S Ashland Ave,Chicago,IL,60620,N/A,,,300,$999.67 ,1,,,,"$299,900.00 ",596,No,-87.6630065,41.7243287
"6925 S. Yale Ave  Chicago, IL",On-Market,Multifamily,6925 S Yale Ave,Chicago,IL,60621,N/A,,,,,6,"$91,666.67 ","$55,505.00 ",10.09%,"$550,000.00 ",161,Yes,-87.6307502,41.7683094
Harlem Avenue - Edison Park UserInvestor Opportunity,On-Market,Retail,"7250-7258 N. Harlem Avenue Chicago, IL",Chicago,IL,60631,Multi,,,5100,$147.06 ,,,,,"$750,000.00 ",490,No,-87.80671715,42.01353673
45 w 103rd st chicago  il,On-Market,Hospitality,45 W 103rd St,Chicago,IL,60628,N/A,,,,,,,,,,7,No,-87.6252516,41.7068943
1639 S. Indiana Ave,On-Market,"Office, Retail",1639 S. Indiana Ave,Chicago,IL,60616,N/A,,,18000,,172,,,,"$1,750,000.00 ",397,No,-87.6220257,41.8592951
3002-3010 N Milwaukee Avenue,On-Market,"Special Purpose, Land",3002-3010 N Milwaukee Avenue,Chicago,IL,60618,N/A,,,18000,,0,,,,"$1,790,000.00 ",245,No,-87.7186122,41.9356285
3701-05 N Elston Avenue,On-Market,Mixed Use,3701 N Elston Ave,Chicago,IL,60618,N/A,,,5940,,2,,"$79,412.00 ",,"$900,000.00 ",964,No,-87.7117494,41.9488388
Starbucks  Charleys Cheesesteaks,On-Market,Retail,7112 W North Ave,Chicago,IL,60707,Multi,,,3112,,2,,"$150,562.00 ",6.64%,"$2,268,888.00 ",172,No,-87.80239621,41.90899933
5407 N. Broadway,On-Market,Land,5407 N Broadway,Chicago,IL,60640,N/A,,,,,,,,,"$1,195,000.00 ",293,No,-87.65991828,41.98026415
301 W 79th St,On-Market,Retail,301 W 79th St,Chicago,IL,60620,Multi,,5,7600,,,,,,"$900,000.00 ",131,No,-87.6322209,41.750462
Outstanding Redevelopment Opportunity,On-Market,Land,1805 N Campbell Ave,Chicago,IL,60647,N/A,,,,,,,,,"$1,950,000.00 ",707,Yes,-87.68977983,41.91421238
633 S Plymouth Ct,On-Market,Retail,633 S Plymouth Ct,Chicago,IL,60605,Multi,,,9941,$135.00 ,3,,"$68,407.00 ",7.60%,"$900,000.00 ",136,No,-87.6284325,41.8734576
2429-2431 W Fullerton,On-Market,Land,2429 W Fullerton Ave,Chicago,IL,60647,N/A,,,,,,,,,"$2,200,000.00 ",909,No,-87.688882,41.924728
5431 S Halsted Street,On-Market,"Retail, Land",5431 S Halsted Street,Chicago,IL,60609,N/A,,,,,0,,,,"$459,000.00 ",19,No,-87.6448942,41.7949874
3.13 Acre Development Site in Bronzeville,On-Market,Land,4401 S State St,Chicago,IL,60609,N/A,,,,,,,,,"$4,600,000.00 ",300,No,-87.625732,41.814548
McKinley Park Multi-Family Redevelopment,On-Market,Industrial,1965 W Pershing Rd,Chicago,IL,60609,Multi,,,1305769,$19.15 ,,,,,"$25,000,000.00 ",1571,No,-87.67421229,41.82311063
5772 S Archer Avenue,On-Market,Retail,5772 S Archer Ave,Chicago,IL,60638,Single,,,5500,,,,,14.00%,"$899,999.00 ",210,No,-87.7573611,41.7967532
Western Bryn Mawr Auto Service- 5556 N Western,On-Market,Retail,5556 N Western Ave,Chicago,IL,60659,N/A,,,2368,,1,,,,"$2,400,000.00 ",162,No,-87.68952593,41.98304376
2.9 Northwest suburbs of Chicago- gas station,On-Market,Retail,2.9 Northwest suburbs of Chicago,Northwest Suburbs of Chicago,IL,60600,N/A,,,,,1,,,,"$2,900,000.00 ",308,No,NA,NA
6700 S. Merrill Ave,On-Market,Multifamily,6700 S Merrill Ave,Chicago,IL,60649,N/A,,,,,50,,,,"$3,450,000.00 ",41,Yes,-87.5730189,41.7733278
Crane Building,On-Market,Industrial,5301-5323 S. Western Ave,Chicago,IL,60609,N/A,,,249000,,,,,,,4,No,-87.6813058,41.7972451
1438-40 W Lake,On-Market,"Office, Industrial",1438-40 W Lake Street,Chicago,IL,60607,Vacant,,,8000,,,,,,,28,No,-87.6639257,41.8856235
3319 West Fullerton,On-Market,Land,3319 W Fullerton Ave,Chicago,IL,60647,N/A,,,,,,,,,"$1,100,000.00 ",4,No,-87.711367,41.924338
7122 Vincennes Ave Shopping Center,On-Market,Retail,7122 S Vincennes Ave,Chicago,IL,60621,Multi,,,7365,$134.28 ,6,,"$112,004.00 ",11.32%,"$989,000.00 ",407,Yes,-87.628934,41.7645976
"Meineke - Chicago Ridge, IL",On-Market,Retail,6154 W 111th St,Chicago Ridge,IL,60415,Single,15,15,2242,,1,,"$106,000.00 ",7.35%,"$1,442,177.00 ",76,No,-87.77377879,41.69047056
Walgreens Dark Highest Cap Rate Walgreens,On-Market,Retail,833 W 115th St,Chicago,IL,60643,Single,,7,14820,$283.40 ,,,"$420,000.00 ",10.80%,"$4,200,000.00 ",316,No,-87.6432368,41.6848373
"Lincoln Park  1629 N. Halsted St., Chicago, IL",On-Market,"Mixed Use, Retail",1629 N Halsted St,Chicago,IL,60614,N/A,,,3837,,,,,,,102,No,-87.64839878,41.91173238
5151 Harlem Ave,On-Market,Office,5151 Harlem Ave.,Chicago,IL,60656,N/A,,,12596,,,,"$94,955.93 ",9.50%,"$999,000.00 ",18,No,-87.8066944,41.9753105
Rehabbed 5-Unit in Pilsen,On-Market,Multifamily,2213 W 23rd Pl,Chicago,IL,60608,N/A,,,,,5,,"$88,000.00 ",8.00%,"$1,100,000.00 ",28,No,-87.6812919,41.8492171
1410 West Taylor Street,On-Market,Retail,1410 W Taylor St,Chicago,IL,60607,N/A,,,1167,$425.00 ,,,,,"$295,000.00 ",441,No,-87.6620769,41.8695205
3000-3030 W. Marquette Rd.,On-Market,Multifamily,3000-3030 W Marquette Rd,Chicago,IL,60629,N/A,,,,,85,"$83,529.41 ","$554,138.00 ",7.80%,"$7,100,000.00 ",224,Yes,-87.6984458,41.7718784
2414 W 71st St,On-Market,Retail,2414 W 71st St,Chicago,IL,60629,Single,,,5400,$58.32 ,5,,,,"$349,900.00 ",302,Yes,-87.683954,41.7648616
Roosevelt  Springfield,On-Market,Land,3901-3907 W Roosevelt Rd,Chicago,IL,60624,N/A,,,,,,,,,,399,Yes,-87.7229217,41.8659478
1419 W. Belmont  Lakeview  Commercial Condo,On-Market,"Office, Retail",1419 W Belmont Ave,Chicago,IL,60657,Vacant,,,900,,1,,,,"$279,000.00 ",8,No,-87.66475549,41.93977941
Value Add-Fresenius-Chicago,On-Market,Office,3410 W Van Buren St,Chicago,IL,60624,Vacant,26.4,2.1,23253,$189.22 ,,,"$247,772.00 ",5.63%,"$4,400,000.00 ",243,No,-87.711387,41.875646
603-07 N. Wells st Chicago in River North,On-Market,Mixed Use,603 N Wells St,Chicago,IL,60654,N/A,,,,,,,,,"$3,650,000.00 ",223,No,-87.63387892,41.89262056
Central Loop Mixed-Use  Perfect for Owner-User or Investor,On-Market,"Land, Mixed Use, Office, Retail",6 S Clark St,Chicago,IL,60603,N/A,,,18306,,,,,,"$3,250,000.00 ",33,No,-87.6310743,41.8816957
1648 W. Kinzie Street,On-Market,"Industrial, Mixed Use, Office",1648 W Kinzie St,Chicago,IL,60622,Multi,,,30000,,,,,,,1884,No,-87.6686679,41.889012
Koo Architects  Single-Tenant Office Investment,On-Market,Office,"55 W Wacker Drive, Suite 600-C",Chicago,IL,60601,Single,,1.5,,,,,"$107,389.00 ",8.59%,"$1,250,000.00 ",1043,No,-87.6300102,41.8864753
6119 W 64th Place,On-Market,Multifamily,6119 W 64th Pl,Chicago,IL,60638,N/A,,,9000,,9,"$127,778.00 ","$60,324.00 ",5.25%,"$1,150,000.00 ",53,No,-87.7747416,41.7748134
4002 S Calumet,On-Market,"Land, Multifamily",4002 S Calumet Ave,Chicago,IL,60653,N/A,,,,,6,,"$123,841.00 ",6.20%,"$2,000,000.00 ",62,No,-87.61850516,41.8217527
Route 59  Heritage Woods Drive,On-Market,Retail,Route 59 & Heritage Woods Drive,West Chicago,IL,06492-4349,N/A,,,,,,,,,,49,Yes,NA,NA
Michigan Avenue Towers I  II - Multi-Tenant Retail Condo,On-Market,Retail,1250 S Michigan Ave,Chicago,IL,60605,Multi,,,17411,,9,,"$608,824.00 ",7.00%,"$8,699,000.00 ",64,No,NA,NA
6600 S Cottage Grove,On-Market,Retail,6600 S Cottage Grove Ave,Chicago,IL,60637,Multi,,,9800,,,,"$89,282.00 ",,,4,Yes,-87.6062657,41.774662
1755-1757-1759 W 79th St,On-Market,Retail,1755 W 79th St,Chicago,IL,60620,Multi,8,7,6818,,3,,,,"$360,000.00 ",32,Yes,-87.6682488,41.7502806
5130-42 N. Western Avenue,On-Market,Land,5130-5142 N. Western Avenue,Chicago,IL,60625,N/A,,,,,,,,,"$2,700,000.00 ",53,No,-87.68920764,41.9751722
5635 W Irving Park Rd,On-Market,"Retail, Industrial",5635 W Irving Park Rd,Chicago,IL,60634,N/A,,,3077,$173.87 ,,,,,"$535,000.00 ",7,No,-87.7684712,41.9529539
logan sq restaurant Building sale lease 595k  6k net,On-Market,"Hospitality, Retail",3581 W Belden Ave,Chicago,IL,60647,N/A,,,,,1,,,,"$595,000.00 ",33,No,-87.71695658,41.92256209
33 E. 83rd,On-Market,Retail,33 E. 83rd St,Chicago,IL,60619,Vacant,,,5053,,1,,,,"$1,225,000.00 ",144,No,-87.6231581,41.7435
Prime Single-Family Home or Convert to Multi-Unit,On-Market,Multifamily,"715 W 18th Street, Chicago, IL",Chicago,IL,60616,N/A,,,6667,,1,,,,"$675,000.00 ",145,No,-87.64545373,41.85758783
Chick-fil-A Ground Lease,On-Market,Retail,11301 S Corliss Ave,Chicago,IL,60628,Single,,14.9,4852,,,,"$150,000.00 ",4.45%,"$3,370,787.00 ",153,Yes,-87.600126,41.691825
2343 W Chicago Avenue,On-Market,Retail,2343 W Chicago Ave,Chicago,IL,60622,N/A,,,2500,$278.00 ,,,,,"$675,000.00 ",431,No,-87.6860643,41.8955424
Entertainment Center,On-Market,Special Purpose,N/A,North Chicago,IL,N/A,N/A,,,1,,,,,,,85,No,NA,NA
Marcus Theatres Outlots - Chicago Heights,On-Market,Land,1301 Hilltop Avenue,Chicago Heights,IL,60411,N/A,,,,,,,,,,1272,Yes,-87.6683141,41.5082681
"6218 S Western Ave , Chicago, IL 60636",On-Market,Mixed Use,6218 S Western Ave,Chicago,IL,60636,N/A,,,3190,$92.48 ,,,,0.00%,"$295,000.00 ",733,Yes,-87.6840532,41.7804619
Ware Ranch Steak House,On-Market,"Business for Sale, Mixed Use",11147 S Michigan Ave,Chicago,IL,60628,N/A,,,3600,$118.06 ,2,,,,"$425,000.00 ",277,Yes,-87.62101448,41.691204
2301-2323 W 95th Street,On-Market,Retail,2301-2323 W 95th Street,Chicago,IL,60643,Multi,,,20392,,,,"$220,555.00 ",,,2140,No,-87.679862,41.720671
1933 S State,On-Market,Office,1933 S State St,Chicago,IL,60616,Vacant,,,1400,$321.43 ,,,,,"$450,000.00 ",552,No,-87.6268289,41.8556429
705 N. Milwaukee Ave.,On-Market,Office,705 N Milwaukee Ave,Chicago,IL,60642,Single,,,3600,$229.17 ,1,,,,"$825,000.00 ",723,No,-87.65257597,41.89438597
1750 N Springfield Ave,On-Market,Industrial,1750 N Springfield Ave,Chicago,IL,60647,N/A,,,33203,,,,,,"$3,250,000.00 ",431,No,-87.7242708,41.9130769
Vacant Owner-UserValue-Add Loop Office Condo  Suite 200,On-Market,Office,"55 W Wacker Drive, Suite 200",Chicago,IL,60601,Vacant,,,,,,,,,"$1,575,000.00 ",1043,No,-87.6300102,41.8864753
Land with Excellent Visibility from Dan Ryan Expy,On-Market,"Land, Retail",8908 S Lafayette Ave,Chicago,IL,60620,Vacant,,,21071,,,,,,"$349,000.00 ",190,No,-87.62598249,41.73244151
"West Ridge - 2251 W. Devon Ave., Chicago, IL- Carry's Lounge",On-Market,Retail,2251 W Devon Ave,Chicago,IL,60659,N/A,,,2698,,2,,,,"$895,000.00 ",1,No,-87.6869604,41.9975978
105 West Chicago Avenue,On-Market,Mixed Use,105 W Chicago Ave,Chicago,IL,60654,N/A,,,7500,,,,,,,621,No,-87.6316624,41.8964621
Chicago Self Service Car Wash,On-Market,Special Purpose,2637 E 100th St,Chicago,IL,60617,N/A,,,4400,,,,,,"$895,000.00 ",99,No,-87.5592435,41.71337787
601 S LaSalle Street,On-Market,Office,601 S La Salle St,Chicago,IL,60605,N/A,,,69170,,,,,,,133,No,-87.6314834,41.8742551
"1348 W Concord Pl , Chicago, IL 60622",On-Market,Office,1348 W Concord Pl,Chicago,IL,60642,Single,,,17250,$200.00 ,3,,,,"$3,450,000.00 ",100,No,-87.66233661,41.91193615
27W270 Jefferson St West Chicago,On-Market,Land,27W270 Jefferson St,West Chicago,IL,60185,N/A,,,,,,,,,"$1,150,000.00 ",103,No,-88.1508777,41.9144308
3055 W Lawrence Avenue,On-Market,"Special Purpose, Land",3055 W Lawrence Avenue,Chicago,IL,60625,N/A,,,,,0,,,,"$799,000.00 ",19,No,-87.7057458,41.9682707
3521-3523 W Lawrence Avenue,On-Market,Special Purpose,3521-3523 W Lawrence Avenue,Chicago,IL,60625,N/A,,,5000,,,,,,"$1,999,000.00 ",364,No,-87.7168477,41.968107
400-424 W 79th St,On-Market,Land,400-424 W 79th St,Chicago,IL,60620,N/A,,,,,,,,,"$725,000.00 ",152,No,-87.6344457,41.750969
J.T. Magen  Company  Single-Tenant Office Investment,On-Market,Office,"55 W Wacker Drive, Suite 1550",Chicago,IL,60601,Single,,1.4,,,,,"$85,378.00 ",8.02%,"$1,065,000.00 ",1043,No,-87.6298719,41.8864369
3957 S. King Dr.  Retail Or Office Condo,On-Market,"Office, Retail",3957 S King Dr,Chicago,IL,60653,Single,,,900,$388.89 ,,,"$15,600.00 ",,"$350,000.00 ",118,No,-87.6164462,41.8223081
1234-1250 N Cicero Avenue,On-Market,"Special Purpose, Land",1234-1250 N Cicero Avenue,Chicago,IL,60651,Vacant,,,,,,,,,"$999,000.00 ",279,No,-87.7461484,41.9033629
5101 W. Division St.,On-Market,"Office, Retail, Special Purpose",5101 W Division St,Chicago,IL,60651,N/A,,,9000,$72.11 ,,,$0.00 ,0.00%,"$649,000.00 ",25,No,-87.75333484,41.90230048
415 N. Dearborn,On-Market,"Mixed Use, Office, Retail",415 N Dearborn St,Chicago,IL,60654,N/A,,,28784,,,,,,,385,No,-87.6294134,41.8897858
2422 S California Avenue  2825 W 24th Boulevard,On-Market,Land,2422 S California Ave & 2825 W 24th Blvd,Chicago,IL,60608,N/A,,,29500,,,,,,,357,Yes,-87.695703,41.847345
1200 West Carroll Avenue,On-Market,Land,1200 W Carroll Ave,Chicago,IL,60607,N/A,,,,,,,,,,191,No,-87.6568567,41.8877034
1157 W 18th St - Assumable Debt,On-Market,Multifamily,1157 W 18th St,Chicago,IL,60608,N/A,,,11906,$356.96 ,13,"$326,923.08 ","$274,687.00 ",6.46%,"$4,250,000.00 ",37,No,-87.6554734,41.8574699
B3-2 Zoned Lot Located Within TOD,On-Market,Land,2252 W 21st St,Chicago,IL,60608,N/A,,,,,,,,,"$185,000.00 ",1139,No,-87.6829201,41.8540812
West Lawn Redevelopment Opportunity,On-Market,Retail,6259 S Kedzie Ave,Chicago,IL,60629,N/A,,,,,,,,,,363,Yes,-87.7029051,41.7792258
7 UNIT CHICAGO,On-Market,Multifamily,7889 S Maryland Ave,Chicago,IL,60619,N/A,,,7650,,7,,,15.00%,"$362,000.00 ",41,Yes,-87.603966,41.7513613
Unique Facility in Humboldt Park,On-Market,Industrial,3705 W Grand Ave,Chicago,IL,60651,Multi,,,20000,$150.00 ,,,,,"$3,000,000.00 ",175,No,-87.7201093,41.9033714
4945 W Berenice,On-Market,Multifamily,4945 W Berenice Ave,Chicago,IL,60641,N/A,,,,,2,,,,"$475,000.00 ",178,No,-87.7516086,41.9504298
For Sale or Lease Development Site on Milwaukee Avenue,On-Market,Retail,5820 N Milwaukee Ave,Chicago,IL,60646,N/A,,,15184,$115.25 ,,,,,"$1,750,000.00 ",265,No,-87.77836031,41.98717828
Ashland Avenue Executive Offices,On-Market,Office,8544 S Ashland Ave,Chicago,IL,60620,N/A,,,2172,,,,"$25,783.00 ",8.59%,"$300,000.00 ",33,No,-87.6635121,41.73812
"3575-3577 w. Belden 2bldgs, 2 lots  AirBnb",On-Market,"Hospitality, Multifamily",3575 W Belden Ave,Chicago,IL,60647,N/A,,,,,3,,,,"$1,599,000.00 ",222,No,-87.71648959,41.92278481
3637 W Division St,On-Market,Retail,3637 W Division St,Chicago,IL,60651,N/A,,,7700,$228.29 ,,,,,"$799,000.00 ",385,Yes,-87.7179855,41.9024124
6017 - 6057 N Western Ave,On-Market,"Retail, Land",6017 - 6057 N Western Ave,Chicago,IL,60659,N/A,,,5305,,,,,,"$4,500,000.00 ",284,No,-87.689331,41.992117
6512 S Ashland Ave,On-Market,"Retail, Mixed Use",6512 S Ashland Ave,Chicago,IL,60636,N/A,,,3000,,,,,,"$295,000.00 ",236,Yes,-87.6643985,41.7753571
NEC of 75th St  Jeffery Blvd,On-Market,Land,2000 E 75th St,Chicago,IL,60649,N/A,,,,,,,,,"$425,000.00 ",1772,No,-87.5756353,41.7591956
3229-3243 N California Ave,On-Market,Land,3243 N California Ave,Chicago,IL,60618,N/A,,,,,,,,,,259,No,-87.6973915,41.9411167
Retail RestaurantBar Opportunity,On-Market,Retail,10350 S Western Ave,Chicago,IL,60643,N/A,,,3996,$162.66 ,,,,,"$650,000.00 ",214,No,-87.6819672,41.7049435
I-290  Western Ave  Redevelopment Opportunity,On-Market,"Land, Mixed Use, Multifamily, Special Purpose",2401 W Congress Pkwy,Chicago,IL,60612,N/A,,,50500,,,,,,,180,No,-87.6865357,41.8746391
3011 East End Ave,On-Market,Industrial,3011 East End Ave,South Chicago Heights,IL,60411,Vacant,,,5000,,,,,,,610,No,-87.6335545,41.4837822
1824 W Hood Ave,On-Market,Multifamily,1824 W Hood Ave,Chicago,IL,60660,N/A,,,3200,,3,"$283,000.00 ","$60,750.00 ",7.16%,"$849,000.00 ",202,No,-87.6762343,41.9933447
7525-7527 N Wolcott Avenue,On-Market,Special Purpose,7525-7527 N Wolcott Avenue,Chicago,IL,60626,N/A,,,15000,,,,,,"$1,499,000.00 ",199,No,-87.6771755,42.0185631
Village Dispensary,On-Market,Retail,1850 W Webster Ave,Chicago,IL,60614,Single,10,8.3,9037,,,,"$583,440.00 ",8.25%,"$7,072,000.00 ",207,No,-87.6755246,41.9219983
"699,000  Car Dealership",On-Market,"Land, Mixed Use, Retail, Special Purpose",2622 N Cicero Ave,Chicago,IL,60639,Single,,,6250,,1,,,,"$699,000.00 ",206,No,-87.7469994,41.9286582
28 E 112th PL,On-Market,Retail,28 E 112th Pl,Chicago,IL,60628,Single,,,,$35.35 ,2,,,,"$865,000.00 ",133,Yes,-87.621904,41.6901406
Bank of America,On-Market,Retail,250 W 83rd St,Chicago,IL,60620,Single,,5.1,4000,,1,,"$306,130.00 ",8.00%,"$3,827,000.00 ",5,No,-87.6314511,41.7437827
ASCEND Wellness,On-Market,Retail,9820 Ridgeland Ave,Chicago Ridge,IL,60415,Single,15,11.5,8925,,,,"$844,132.00 ",9.00%,"$9,379,244.00 ",127,No,-87.780138,41.7143559
7050 S Pulaski Rd.,On-Market,"Industrial, Land, Retail, Self Storage",7050 S Pulaski Rd,Chicago,IL,60629,N/A,,,96268,,,,,,,54,No,-87.72492045,41.76495444
5140 N Clark St,On-Market,"Retail, Multifamily, Mixed Use",5140 N Clark St,Chicago,IL,60640,N/A,,,6800,,4,,,,"$2,150,000.00 ",35,No,-87.6686121,41.9755929
2640 E 75th Street,On-Market,"Retail, Land",2640 E 75th Street,Chicago,IL,60649,N/A,,,,,0,,,,"$499,000.00 ",11,No,-87.560041,41.7592934
24 acres Rt. 31,On-Market,Land,24 acres Rt. 31,Chicago,IL,60606,N/A,,,,,,,,,,2076,No,-87.6371461,41.8817767
Lincoln Office Building,On-Market,Office,5875 N Lincoln Ave,Chicago,IL,60659,N/A,,,35282,$88.63 ,62,,,,"$3,127,000.00 ",252,No,-87.7035844,41.9884261
"2540 W Chicago Ave, Chicago, IL 60622",On-Market,"Mixed Use, Office, Retail",2540 W Chicago Ave,Chicago,IL,60622,N/A,,,1350,,,,,,"$349,000.00 ",321,No,-87.6909466,41.8958351
3951 N Kimball Avenue,On-Market,Retail,3951 N Kimball Ave,Chicago,IL,60618,Multi,,,4738,,,,"$108,294.00 ",,,921,No,-87.7124928,41.9536097
62nd  Western,On-Market,Land,6153 S Western Ave,Chicago,IL,60636,N/A,,,,,,,,,,15,Yes,-87.6538017,41.6773775
INVESTORS looking for CASH FLOW,On-Market,Multifamily,2632 W 21st St,Chicago,IL,60608,N/A,,,3750,,3,,"$76,000.00 ",8.55%,"$889,000.00 ",24,No,-87.691932,41.85409
1434 N Bosworth,On-Market,Multifamily,1434 N Bosworth Ave,Chicago,IL,60642,N/A,,,5166,$387.13 ,6,"$333,316.67 ",,,"$1,999,900.00 ",18,No,-87.66638972,41.90810813
8625 S Stony Island Blvd,On-Market,Retail,8625 S Stony Is Ave,Chicago,IL,60617,N/A,,2,3500,$509.43 ,5,,"$17,601.00 ",7.90%,"$509,000.00 ",368,No,-87.5850148,41.7379796
"525-527 N. Ashland Ave, Chicago, IL",On-Market,"Mixed Use, Office, Retail",525-527 N Ashland Ave,Chicago,IL,60622,Multi,,,,,4,,"$4,400.00 ",0.31%,"$1,400,000.00 ",776,No,-87.66689904,41.89182017
4201 S Michigan Ave. - Strong Assumable Debt,On-Market,Multifamily,4201 S Michigan Ave. Bronzeville,Chicago,IL,60653,N/A,,,30198,$148.19 ,21,"$213,095.24 ","$315,918.00 ",7.06%,"$4,475,000.00 ",36,No,-87.6227986,41.8181597
Little Village Corner Store  Apartment,On-Market,"Mixed Use, Multifamily, Retail",2857 S Kostner Ave,Chicago,IL,60623,N/A,,,1850,,2,,,,"$249,000.00 ",105,No,-87.73410898,41.83860679
1329 W Chicago,On-Market,Retail,1329 W Chicago Ave,Chicago,IL,60642,Single,,4,2779,,,,,9.00%,,818,No,-87.6605598,41.8959572
Chicago Food Production Facility,On-Market,"Business for Sale, Industrial",1325 W 15th St,Chicago,IL,60608,Single,,,53179,$122.23 ,1,"$6,500,000.00 ",,,"$6,500,000.00 ",642,No,-87.659496,41.8612957
"For Sale 24,500 SF Land on Cicero Ave in Belmont Cragin",On-Market,Mixed Use,2825 N Cicero Ave,Chicago,IL,60641,N/A,,,5600,,,,,,,12,No,-87.74657517,41.93216424
1833 W Irving Park Rd,On-Market,Industrial,1833 W Irving Park Rd,Chicago,IL,60613,N/A,,,11876,,,,,,"$1,200,000.00 ",720,No,-87.6755822,41.9539829
3250 W. Lake Street,On-Market,Industrial,3250 W Lake St,Chicago,IL,60624,N/A,,,72419,$36.66 ,,,,,"$2,655,000.00 ",250,No,-87.7080675,41.8845797
Madison  Keeler,On-Market,Land,4153 W Madison St,Chicago,IL,60624,N/A,,,,,,,,,"$29,000.00 ",514,No,-87.7302094,41.8804106
3677 W Grand Ave. Chicago,On-Market,Special Purpose,3677 W Grand Ave,Chicago,IL,60651,N/A,,,5300,,1,,,,"$799,900.00 ",42,No,-87.7194729,41.903028
Kilbourn Park  Irving Park Development Opportunity,On-Market,Land,"4058 W Melrose Street, 3240 & 3301 N Karlov Avenue",Chicago,IL,60632,N/A,,,,,,,,,,154,No,-87.7074089,41.8074687
76th  Stony Shopping Center,On-Market,Retail,7544 S Stony Island Ave,Chicago,IL,60649,Multi,,,66171,,,,"$1,063,666.00 ",9.00%,"$11,800,000.00 ",103,Yes,-87.58658968,41.7575039
Garage on 6 Lots on 59th St.,On-Market,"Retail, Special Purpose",2254 W 59th St,Chicago,IL,60636,N/A,,,2800,,,,,,"$350,000.00 ",209,No,-87.6808006,41.7868367
"545 E Oakwood Blvd , Chicago, IL 60653",On-Market,Land,545 E Oakwood Blvd,Chicago,IL,60653,N/A,,,,,,,,,"$1,099,000.00 ",129,Yes,-87.6125535,41.8223971
Brighton Park Commerical Lot,On-Market,Land,2880 W 48th Pl,Chicago,IL,60632,N/A,,,,,,,,,"$800,000.00 ",196,No,-87.69674663,41.80555824
4192 S Archer Avenue,On-Market,Mixed Use,4192 S Archer Avenue,Chicago,IL,60632,N/A,,,,,0,,,,"$9,600,000.00 ",62,No,-87.6992384,41.8173446
Bronzeville 6 Unit,On-Market,Multifamily,4522 S Calumet Ave,Chicago,IL,60653,N/A,,,,,6,"$158,333.33 ","$70,461.00 ",7.42%,"$950,000.00 ",167,No,-87.6183963,41.8122411
63rd  Ashland,On-Market,Land,1537-1547 W 63rd St,Chicago,IL,60636,N/A,,,,,,,,,"$199,000.00 ",643,Yes,-87.6632769,41.779233
1449 W Irving Park,On-Market,"Office, Retail",1449 W Irving Park Rd,Chicago,IL,60613,Vacant,,,850,$151.76 ,,,,,"$129,000.00 ",208,No,-87.66614,41.9541278
1419 W Diversey - Catering Kitchen w Parking and Office,On-Market,Retail,1419 W Diversey Pkwy,Chicago,IL,60614,N/A,,,11300,$265.49 ,,,,,"$3,000,000.00 ",289,No,-87.6644544,41.9322874
421 N Aberdeen 1 of 5 Adjacent Parcels in Fulton Market,On-Market,"Retail, Office, Industrial, Mixed Use",421 N Aberdeen St,Chicago,IL,60642,Vacant,,,5330,,,,,,"$1,350,000.00 ",50,No,-87.65461324,41.88965924
"10139 S Western Ave , Chicago, IL 60643",On-Market,"Mixed Use, Office, Retail",10139 S Western Ave,Chicago,IL,60643,N/A,,,,,3,,,,"$599,000.00 ",7,No,-87.6814393,41.7087692
PATTERSON'S TOWING  AUTO SALES,On-Market,Industrial,10106 S Michigan Ave,Chicago,IL,60628,Single,,,3500,,3,,,,,62,No,-87.6201615,41.7105621
"334 E. 75th St., Chicago, 60619",On-Market,Mixed Use,334 E 75th St,Chicago,IL,60619,Multi,,,5392,$78.80 ,4,"$106,225.00 ","$35,400.00 ",8.35%,"$424,900.00 ",4,Yes,-87.6169515,41.758494
62 W Huron Street,On-Market,"Mixed Use, Office",62 W Huron St,Chicago,IL,60654,N/A,,,3000,,,,,,"$750,000.00 ",46,No,-87.6305699,41.8950813
7121-23 S Normal Blvd,On-Market,Multifamily,7121-23 S Normal Blvd,Chicago,IL,60621,N/A,,,8414,,6,"$148,333.33 ","$85,833.00 ",10.11%,"$849,000.00 ",26,No,-87.6368028,41.7646317
"31st  Kedzie, Chicago - NWC",On-Market,Land,31st St. & S. Kedzie,Chicago,IL,60623,N/A,,,,,,,,,,770,No,-87.70518303,41.83720736
"1745 N Cicero Ave, Chicago, IL 2 unit ResComAutoMixed",On-Market,"Mixed Use, Retail",1745 N Cicero Ave,Chicago,IL,60639,Multi,1,0.2,3100,$123.39 ,2,"$191,250.00 ",,,"$382,500.00 ",287,No,-87.7456238,41.9128071
Top View Restaurant,On-Market,"Business for Sale, Retail",4715 W 63rd St,Chicago,IL,60629,N/A,,,4000,,,,,,"$1,599,000.00 ",132,No,-87.74042931,41.77843567
Quality Auto Mart,On-Market,Land,4675 S Archer Ave,Chicago,IL,60632,N/A,,,,,,,,,"$1,495,000.00 ",227,No,-87.7129994,41.8083465
3115 N Lincoln Avenue,On-Market,"Retail, Land",3115 N Lincoln Avenue,Chicago,IL,60657,N/A,,,,,0,,,,"$950,000.00 ",1,No,-87.6666544,41.938492
3-Unit Greystone  Fully Renovated,On-Market,Multifamily,5419 S Wabash Ave,Chicago,IL,60615,N/A,,,4082,$183.73 ,3,"$256,666.67 ",,,"$750,000.00 ",130,Yes,-87.62410903,41.79593284
5153-5159 W Diversey Avenue,On-Market,"Retail, Land",5153 W Diversey Avenue,Chicago,IL,60639,Multi,,5,7500,,,,,7.50%,"$1,329,000.00 ",228,No,-87.7560477,41.9312166
1830-1856 N Kostner Ave,On-Market,"Office, Industrial",1830-1856 N Kostner Ave,Chicago,IL,60639,N/A,,,151500,,,,,,"$7,225,000.00 ",126,No,-87.736417,41.9144003
95th  Paxton Land,On-Market,Land,9507 S Paxton Ave,Chicago,IL,60617,N/A,,,,,,,,,"$350,000.00 ",691,No,-87.570298,41.722224
North Avenue and Atlantic,On-Market,Land,0000 North Avenue,West Chicago,IL,60185,N/A,,,,,,,,,"$2,600,000.00 ",158,No,-88.2029465,41.9144065
"1738 W 79th St , Chicago, IL 60638",On-Market,Mixed Use,1738 W 79th St,Chicago,IL,60620,N/A,,,3795,,,,,,"$409,900.00 ",187,No,-87.6674178,41.7504813
4818 S Pulaski Rd,On-Market,"Retail, Office, Mixed Use",4818 S Pulaski Rd,Chicago,IL,60632,N/A,,,5400,$69.44 ,2,,,,"$375,000.00 ",1025,No,-87.7238328,41.8054357
5801 N Lincoln Avenue,On-Market,"Retail, Land",5801 N Lincoln Avenue,Chicago,IL,60659,N/A,,,,,0,,"$66,000.00 ",8.26%,"$799,000.00 ",75,No,-87.7013153,41.9871828
4601-33 S Halsted St.,On-Market,Land,4619 S Halsted St,Chicago,IL,60609,N/A,,,,,,,,,"$1,500,000.00 ",297,No,-87.645203,41.810025
Vacant Owner-UserValue-Add Loop Office Condo  Suite 600-B,On-Market,Office,"55 W Wacker Drive, Suite 600-B",Chicago,IL,60601,Vacant,,,,,,,,,"$505,000.00 ",1043,No,-87.6300102,41.8864753
Taco Bell,On-Market,Retail,3509 N Harlem Ave,Chicago,IL,60634,Single,10.6,4.7,1986,"$1,030.97 ",,,"$122,850.00 ",6.00%,"$2,047,500.00 ",92,No,-87.80671895,41.94347388
523 W. 65th,On-Market,Multifamily,523 W 65th Pl,Chicago,IL,60621,N/A,,,4200,$142.38 ,4,"$149,500.00 ","$49,020.00 ",8.20%,"$598,000.00 ",496,Yes,-87.6377778,41.7751202
"213 Main Street  West Chicago, IL",On-Market,"Mixed Use, Retail",213 Main St,West Chicago,IL,60185,N/A,,,6400,,2,,,,"$400,000.00 ",22,No,-88.2033915,41.8835064
6557 S Minerva - 10-Unit Apartment Building,On-Market,Multifamily,6557 S Minerva Ave,Chicago,IL,60637,N/A,,,,,10,"$160,000.00 ","$123,381.00 ",7.71%,"$1,600,000.00 ",179,Yes,-87.59733868,41.77508566
Second-Generation Restaurant Building with FFE Included,On-Market,Retail,6230 S Western Ave,Chicago,IL,60636,Vacant,,,2250,,,,,,"$295,000.00 ",21,Yes,-87.68371782,41.7801486
156 W 95th St,On-Market,Retail,156 W 95th St,Chicago,IL,60628,Single,,,1800,$105.50 ,1,,,,"$189,900.00 ",1278,Yes,-87.62863592,41.72178471
1637 N Lowell Ave,On-Market,Industrial,1637 N Lowell Ave,Chicago,IL,60639,N/A,,,17000,,,,,,"$525,000.00 ",166,No,-87.7345542,41.9110986
5301-5323 S. WESTERN AVE,On-Market,Retail,5301-5323 S. WESTERN AVE,Chicago,IL,60609,N/A,,,308000,$42.50 ,,,,,"$13,090,000.00 ",280,No,-87.6813058,41.7972451
Development - Cicero and Armitage - 7 pins,On-Market,Land,4612 W Armitage Ave,Chicago,IL,60639,N/A,,,,,,,,,"$3,000,000.00 ",69,No,-87.7418133,41.91700633
SWC Route 64 and 59,On-Market,Land,Illinois Rte 59,West Chicago,IL,60185,N/A,,,,,,,,,"$699,000.00 ",1617,No,-88.1943952,41.8929836
"2022-2026 W 95th St. Chicago, IL 60643",On-Market,"Mixed Use, Office, Retail",2022 W 95th St,Chicago,IL,60643,N/A,,,7575,$131.35 ,,,,,"$995,000.00 ",28,No,-87.6734391,41.7211332
Stony Southside Portfolio,On-Market,Multifamily,5825 S Michigan Ave,Chicago,IL,60637,N/A,,,91510,,103,,,7.77%,"$8,240,000.00 ",494,Yes,-87.6219263,41.788485
6335 N Mozart Ave,On-Market,Land,6335 N Mozart St,Chicago,IL,60659,N/A,,,,,,,,,"$249,900.00 ",28,No,-87.7004719,41.9966976
4777 N. Milwaukee Avenue,On-Market,Retail,4777 N Milwaukee Ave,Chicago,IL,60630,N/A,,,10880,,,,"$324,760.00 ",,"$4,000,000.00 ",570,No,-87.7599194,41.9673999
6000 W Montrose Ave,On-Market,Retail,6000 W Montrose Ave,Chicago,IL,60634,Single,,,1600,$531.25 ,,,,,"$850,000.00 ",1323,No,-87.77698659,41.96056398
Prime Commercial Land for Sale in Evergreen Park IL,On-Market,Land,3101 W 87th St,Chicago,IL,60652,N/A,,,,,,,,,"$310,000.00 ",147,No,-87.700622,41.734971
Curry Kitchen,On-Market,Retail,5304 W Devon,Chicago,IL,60646,Single,5,4.3,2300,$304.35 ,1,,"$54,114.00 ",7.73%,"$700,000.00 ",66,No,-87.76095546,41.99741308
2651-59 W. North Ave.,On-Market,"Mixed Use, Multifamily",2651 W North Ave,Chicago,IL,60647,N/A,,,,,11,,,,"$1,200,000.00 ",74,No,-87.69442285,41.91018493
525 W 119th St,On-Market,Office,525 W 119th St,Chicago,IL,60628,Single,,,700,$198.57 ,,,,,"$139,000.00 ",1527,No,-87.635739,41.6777382
Imperial Lofts,On-Market,Multifamily,1528 S Wabash Ave,Chicago,IL,60605,N/A,,,61338,,51,,,,"$14,995,000.00 ",180,No,-87.62572627,41.86099281
Portage Park Development Land,On-Market,Land,4611 N Milwaukee Ave,Chicago,IL,60630,N/A,,,,,,,,,"$2,950,000.00 ",1440,No,-87.757408,41.964479
The 1900 Block Portfolio  2 Buildings on Chicago Ave,On-Market,"Mixed Use, Multifamily, Retail",1912 W Chicago Ave,Chicago,IL,60622,Multi,,,7589,$276.45 ,4,,,,"$2,098,000.00 ",236,No,-87.67537027,41.89596089
9401 S. Pulaski Rd.,On-Market,Office,9401 S Pulaski Rd,Chicago,IL,60805,Vacant,,,1837,$81.11 ,,,,,"$149,000.00 ",655,No,-87.72147079,41.72198932
Industrial Baking Facility,On-Market,Industrial,2711 W George St,Chicago,IL,60618,Single,12,10,23442,$254.64 ,,,,7.50%,"$5,969,227.20 ",193,No,-87.6956248,41.9335752
3448 S Ashland,On-Market,Industrial,3448 S Ashland Ave,Chicago,IL,60608,Single,,,1800,$166.61 ,1,,,,"$299,900.00 ",62,No,-87.6658811,41.8309764
2871 N. Milwaukee Avenue Logan Square,On-Market,Retail,2871 N. Milwaukee Avenue Logan Square,Chicago,IL,60618,Multi,,,1600,,,,,,,992,No,-87.7145468,41.9336413
Southwest Corner 87th  Jeffery,On-Market,Land,1955 E 87th St,Chicago,IL,60617,N/A,,,,,,,,,"$450,000.00 ",1772,No,-87.576019,41.736788
3515 West Irving Park Road,On-Market,Retail,3515 Irving Park Rd,Chicago,IL,60618,Single,7,,8422,,,,,,"$3,000,000.00 ",54,No,-87.71601673,41.95375816
1444 West Lake Street,On-Market,"Office, Industrial",1444 West Lake Street,CHICAGO,IL,60607,N/A,,,,,,,,,,28,No,-87.6641478,41.8856317
Giordano's,On-Market,"Land, Retail",1040 W Belmont Ave,Chicago,IL,60657,Single,,,6022,,1,,,,"$2,350,000.00 ",14,No,-87.65571806,41.93987879
3410Ashland Mixed-Use Lots,On-Market,Land,3410 S Ashland Ave,Chicago,IL,60608,N/A,,,,,,,,,"$345,000.00 ",438,No,-87.6656456,41.83192949
6311 South Western,On-Market,Retail,6311 S Western Ave,Chicago,IL,60636,N/A,,,3407,$309.95 ,,,,,"$1,056,000.00 ",554,Yes,-87.68333639,41.778468
7236 S University Ave,On-Market,Multifamily,7236 S University Ave,Chicago,IL,60619,N/A,,,,,6,,,,"$570,000.00 ",326,Yes,-87.5973355,41.7629478
3500 N Milwaukee Ave,On-Market,Retail,3500 N Milwaukee Ave,Chicago,IL,60641,Vacant,,,24800,,,,,,,293,No,-87.732469,41.944048
5601-5617 S Western Ave,On-Market,"Land, Retail",5601 S Western Ave,Chicago,IL,60636,N/A,,,23375,,,,,,"$550,000.00 ",11,No,-87.68390879,41.79194323
"603-07 N. Wells St in River North , Chicago",On-Market,Mixed Use,603 N Wells St,Chicago,IL,60654,Single,,,,,,,"$27,000.00 ",0.74%,"$3,650,000.00 ",222,No,-87.633876,41.8925871
5143 N Clark Street,On-Market,"Mixed Use, Multifamily, Retail",5143 N Clark St,Chicago,IL,60640,Multi,,,3600,,3,,"$78,357.00 ",7.16%,"$1,095,000.00 ",384,No,-87.6678801,41.9756168
New Construction in Prime Woodlawn Location,On-Market,Multifamily,6126 S Eberhart Ave,Chicago,IL,60637,N/A,,,3750,,3,,"$60,000.00 ",7.33%,"$819,000.00 ",28,Yes,-87.6135266,41.7831253
3325 North Sheffield Avenue,On-Market,Multifamily,3325 N Sheffield Ave,Chicago,IL,60657,N/A,,,8165,,5,,,,"$2,400,000.00 ",34,No,-87.6539006,41.9425274
3629 N Halsted,On-Market,Retail,3629 N Halsted St,Chicago,IL,60613,N/A,,,3600,$254.17 ,,,,,"$915,000.00 ",621,No,-87.6491051,41.9482832
3347 N Clark St,On-Market,Retail,3347 N Clark St,Chicago,IL,60657,Single,,1.8,2500,$355.20 ,1,,"$56,241.00 ",6.33%,"$888,000.00 ",732,No,-87.6529259,41.9430023
159 W Kinzie St,On-Market,"Retail, Office",159 W Kinzie St,Chicago,IL,60654,Vacant,,,23500,,,,,,"$5,695,000.00 ",53,No,-87.6333335,41.888878
Free Standing Building 133rd  Baltimore,On-Market,"Retail, Office",13336 S Baltimore Ave,Chicago,IL,60633,Single,,,2667,$127.48 ,,,,,"$340,000.00 ",1,No,-87.5473553,41.6525248
2738 West Harrison Street,On-Market,Industrial,2738 W Harrison,Chicago,IL,60612,N/A,,,12000,,,,,,"$725,000.00 ",2140,No,-87.695153,41.874106
Mosaic Crossing Lot 4,On-Market,Land,1859 N Neltnor Blvd,West Chicago,IL,60185,N/A,,,,,,,,,"$800,000.00 ",193,No,-88.208257,41.917673
938 N Washtenaw Ave,On-Market,Multifamily,938 N Washtenaw Ave,Chicago,IL,60622,N/A,,,1,,,,,,"$1,299,000.00 ",130,No,-87.6946153,41.8986601
200 W North Ave Land West Chicago,On-Market,Land,200 North Ave,West Chicago,IL,60185,N/A,,,,,,,,,"$699,000.00 ",888,No,-88.20934899,41.91264771
1519 N Milwaukee Avenue,On-Market,Retail,1519 N Milwaukee Ave,Chicago,IL,60622,Single,,,2000,$697.50 ,1,,"$105,560.00 ",7.57%,"$1,395,000.00 ",1,No,-87.6752012,41.9092625
1542-1550 N Milwaukee,On-Market,"Retail, Mixed Use",1542-1550 N Milwaukee,Chicago,IL,60622,Vacant,,,36000,,,,,,,1006,No,-87.6764184,41.9093553
Vacant Owner-UserValue-Add Loop Office Condo  Ste 710716,On-Market,Office,"55 W Wacker Drive, Suite 710/716",Chicago,IL,60601,Vacant,,,,,,,,,"$800,000.00 ",1043,No,-87.6300102,41.8864753
The Century,On-Market,"Mixed Use, Retail",2828 N Clark St,Chicago,IL,60657,N/A,,,175065,,,,,,,396,No,-87.645543,41.9333925
7555 N California,On-Market,Retail,7555 N California Ave,Chicago,IL,60645,N/A,,,1640,"$1,097.56 ",,,,,"$1,800,000.00 ",267,No,-87.69955626,42.01930876
New Construction 3-Unit in Woodlawn,On-Market,Multifamily,6538 S Rhodes Ave,Chicago,IL,60637,N/A,,,4200,,33,,,,"$899,900.00 ",22,Yes,-87.6121943,41.7754997
5800 S Hoyne Ave,On-Market,"Special Purpose, Land",5800 S Hoyne Ave,Chicago,IL,60636,N/A,,,10600,,0,,,,"$525,000.00 ",173,Yes,-87.676951,41.788269
North Chicago Project,On-Market,Multifamily,2011 Kemble Ave,North Chicago,IL,60064,N/A,,,,,,,,,"$500,000.00 ",168,No,-87.85494337,42.32208803
2336-2346 W. Roosevelt Road,On-Market,"Land, Mixed Use, Retail",2336 W Roosevelt Rd,Chicago,IL,60608,N/A,,,,,,,,,"$999,000.00 ",175,No,-87.68540726,41.86657125
4800 S Wood St,On-Market,Multifamily,4800 S Wood St,Chicago,IL,60609,N/A,,,,,,,,,"$425,000.00 ",397,No,-87.6701531,41.8066245
Chicago Ridge Land,On-Market,Land,10537 Ridgeland Ave,Chicago Ridge,IL,60415,N/A,,,,,,,,,"$285,000.00 ",557,No,-87.7788314,41.7004064
3152 W Devon Avenue,On-Market,Special Purpose,3152 W Devon Avenue,Chicago,IL,60659,N/A,,,,,0,,,,"$135,000.00 ",95,No,-87.70931284,41.99734934
3701 S Kedzie Ave,On-Market,"Office, Land, Special Purpose",3701 S Kedzie Ave,Chicago,IL,60632,Multi,,,,,,,,,"$1,200,000.00 ",249,No,-87.7043142,41.8260749
4111 W Monroe St,On-Market,Land,4111 W Monroe St,Chicago,IL,60624,N/A,,,,,,,,,"$135,000.00 ",225,No,-87.7286249,41.8794759
EXPEDITED SALE Prime Bronzeville - 8 Units 8.45 Cap,On-Market,Multifamily,4008 S Calumet Ave,Chicago,IL,60653,N/A,,,8650,$150.17 ,8,"$162,375.00 ","$109,706.00 ",8.45%,"$1,299,000.00 ",36,No,-87.6187332,41.8216442
5120 N Milwaukee Ave,On-Market,Industrial,5120 N Milwaukee Ave,Chicago,IL,60630,Vacant,,,13075,,,,,,"$1,500,000.00 ",68,No,-87.7661474,41.9734042
Avondale European Sports Bar and Cafe,On-Market,Retail,3930 W School Street,Chicago,IL,60618,Single,,3,1447,,,,"$106,079.00 ",57.34%,"$185,000.00 ",1762,No,-87.7261696,41.9410883
3-Unit Mixed-Use Building,On-Market,"Mixed Use, Multifamily, Retail",1934 W Chicago Ave,Chicago,IL,60622,Multi,,,4560,$349.12 ,3,,,7.30%,"$1,592,000.00 ",231,No,-87.67600499,41.89591791
2000 N. Clifton Avenue,On-Market,Retail,2000 N Clifton Ave,Chicago,IL,60614,N/A,,,2900,,,,,,"$640,000.00 ",921,No,-87.6572528,41.9183013
Cheltenham Place,On-Market,Multifamily,3075 E Cheltenham Pl,Chicago,IL,60649,N/A,,,42430,$140.23 ,60,"$99,166.67 ","$481,733.00 ",8.10%,"$5,950,000.00 ",368,Yes,-87.5499428,41.7530925
Redevelopment Opportunity,On-Market,"Retail, Land",10619 Ridgeland Ave,Chicago Ridge,IL,60415,Vacant,,,23522,,,,,,"$149,000.00 ",557,No,-87.7788356,41.6992782
100 N Kedzie,On-Market,Retail,100 N Kedzie Ave,Chicago,IL,60612,Vacant,,,4500,$155.33 ,32,,,0.00%,"$599,000.00 ",252,No,-87.7064757,41.8831681
Single-Tenant Commercial Property in the South Loop,On-Market,Land,1639 S State St,Chicago,IL,60616,N/A,,,13531,,1,,,,"$2,250,000.00 ",739,No,-87.626856,41.8588799
3185 N Elston,On-Market,Business for Sale,3185 N Elston Ave,Chicago,IL,60618,N/A,,,,,,,,,"$150,000.00 ",66,No,-87.6976305,41.9391669
63rd  Vernon,On-Market,Retail,6317 S Vernon,Chicago,IL,60637,N/A,,,25000,$30.00 ,2,,,,"$750,000.00 ",1351,Yes,-87.6144092,41.7798296
EXPEDITED SALE KENWOOD LAKEFRONT - 13 UNITS VALUE-ADD,On-Market,Multifamily,4335 S Greenwood Ave,Chicago,IL,60653,N/A,,,9050,$109.94 ,13,"$76,538.46 ",$0.00 ,,"$995,000.00 ",53,No,-87.59940532,41.81584969
3635-37 W Roosevelt Rd,On-Market,Land,3635 W Roosevelt Rd,Chicago,IL,60624,N/A,,,,,,,,,"$275,000.00 ",999,Yes,-87.71660083,41.86595711
9363 S South Chicago,On-Market,Industrial,9363 S South Chicago Ave,Chicago,IL,60617,N/A,,,3000,$43.00 ,,,,,"$129,000.00 ",230,No,-87.5487418,41.7254465
Saint Felicitas,On-Market,"Mixed Use, Multifamily, Special Purpose",8400 S Blackstone Ave,Chicago,IL,60619,N/A,,,90638,,,,,,"$1,975,000.00 ",180,Yes,-87.5883026,41.7422245
8559 S.ASHLAND AVE,On-Market,"Mixed Use, Retail",8559 S Ashland Ave,Chicago,IL,60620,Multi,,,4000,,2,,"$35,000.00 ",13.51%,"$259,000.00 ",82,No,-87.6627762,41.7377721
4850 N Sawyer Ave,On-Market,Land,4850 N Sawyer Ave,Chicago,IL,60625,N/A,,,,,,,,,"$2,000,000.00 ",9,No,-87.7101037,41.9699534
1624 W 69th St,On-Market,"Mixed Use, Land",1624 W 69th St,Chicago,IL,60636,N/A,,,15625,$7.22 ,,,,,"$110,000.00 ",1351,Yes,-87.6647898,41.7687296
Chinatown RestaurantRetail Space Unit 112,On-Market,"Office, Retail",2244 S Canal St,Chicago,IL,60616,Vacant,,,,,112113,,,,"$599,000.00 ",49,No,-87.63862748,41.85145422
75th  Exchange,On-Market,Retail,7500 S Exchange Ave,Chicago,IL,60649,N/A,,,31000,$80.65 ,,,,,,1,Yes,-87.5602231,41.7589159
Halsted Plaza Shopping Center,On-Market,Retail,801 W 119th St,Chicago,IL,60643,Multi,,,61800,$77.67 ,4,,"$500,217.00 ",10.42%,"$4,800,000.00 ",15,No,-87.64251105,41.67765604
420 W Huron,On-Market,Office,420 W Huron St,Chicago,IL,60654,Multi,,,30918,,87,,,,"$4,500,000.00 ",146,No,-87.6393727,41.8949312
"Archer  Pulaski, Chicago - SWC at 51st",On-Market,Land,"Archer & Pulaski, Chicago",Chicago,IL,60632,N/A,,,,,,,,,,770,No,-87.72390825,41.80198769
"16,553 sf site zoned RT-4",On-Market,Land,4400 S Wabash Ave,Chicago,IL,60653,N/A,,,,,,,,,"$590,000.00 ",74,No,-87.6251039,41.814488
4131 S State St,On-Market,Industrial,4131 S State St,Chicago,IL,60609,Vacant,,,60000,,,,,,"$5,395,000.00 ",203,No,-87.6258875,41.8190175
